var,country,country_name,code,region,city,airport,latitude,longitude
IataAAN,ae,United Arab Emirates,aan,Abu Zaby,Al Ain,Al Ain International Airport,24.2617,55.6092
IataAUH,ae,United Arab Emirates,auh,Abu Zaby,Abu Dhabi,Abu Dhabi International Airport,24.433,54.6511
IataAYM,ae,United Arab Emirates,aym,Abu Zaby,Abu Dhabi,Yas Island Seaplane Base,24.467,54.6103
IataAZI,ae,United Arab Emirates,azi,Abu Zaby,Abu Dhabi,Al Bateen Executive Airport,24.4283,54.4581
IataDCG,ae,United Arab Emirates,dcg,Dubayy,,Dubai Creek Seaplane Base,25.2422,55.3314
IataDHF,ae,United Arab Emirates,dhf,Abu Zaby,,Al Dhafra Air Base,24.2482,54.5477
IataDJH,ae,United Arab Emirates,djh,Dubayy,,Jebel Ali Seaplane Base,24.989,55.0238
IataDWC,ae,United Arab Emirates,dwc,Dubayy,Dubai,Al Maktoum International Airport,24.8964,55.1614
IataDXB,ae,United Arab Emirates,dxb,Dubayy,Dubai,Dubai International Airport,25.2528,55.3644
IataFJR,ae,United Arab Emirates,fjr,Al Fujayrah,Fujairah,Fujairah International Airport,25.1122,56.324
IataNHD,ae,United Arab Emirates,nhd,Dubayy,Dubai,Al Minhad Air Base,25.0268,55.3662
IataRHR,ae,United Arab Emirates,rhr,Ra's al Khaymah,,Al Hamra Seaplane Base,25.691,55.778
IataRKT,ae,United Arab Emirates,rkt,Ra's al Khaymah,Ras Al Khaimah,Ras Al Khaimah International Airport,25.6135,55.9388
IataSHJ,ae,United Arab Emirates,shj,Ash Shariqah,Sharjah,Sharjah International Airport,25.3286,55.5172
IataXSB,ae,United Arab Emirates,xsb,Abu Zaby,Sir Bani Yas,Sir Bani Yas Airport,24.2836,52.5803
IataZDY,ae,United Arab Emirates,zdy,Abu Zaby,Delma Island,Dalma Airport,24.51,52.3352
IataBIN,af,Afghanistan,bin,Bamyan,Bamyan,Bamyan Airport,34.817,67.817
IataBST,af,Afghanistan,bst,Helmand,Lashkar Gah,Bost Airport,31.5597,64.365
IataCCN,af,Afghanistan,ccn,Ghor,Chaghcharan,Chaghcharan Airport,34.5265,65.271
IataDAZ,af,Afghanistan,daz,Badakhshan,Darwaz,Darwaz Airport,38.4611,70.8825
IataDWR,af,Afghanistan,dwr,Helmand,Reg,Dwyer Airport,31,64
IataFAH,af,Afghanistan,fah,Farah,Farah,Farah Airport,32.367,62.183
IataFBD,af,Afghanistan,fbd,Badakhshan,Fayzabad,Fayzabad Airport,37.1211,70.5181
IataGRG,af,Afghanistan,grg,Kabul,Gardez,Gardez Airport,33.6315,69.2394
IataGZI,af,Afghanistan,gzi,Ghazni,Ghazni,Ghazni Airport,33.5312,68.4129
IataHEA,af,Afghanistan,hea,Herat,Herat,Herat International Airport,34.21,62.2283
IataJAA,af,Afghanistan,jaa,Nangarhar,Jalalabad,Jalalabad Airport,34.3998,70.4986
IataKBL,af,Afghanistan,kbl,Kabul,Kabul,Kabul International Airport,34.5658,69.2131
IataKDH,af,Afghanistan,kdh,Kandahar,Kandahar,Kandahar International Airport,31.5058,65.8478
IataKHT,af,Afghanistan,kht,Khost,Khost Province,Khost Airfield,33.3334,69.952
IataKUR,af,Afghanistan,kur,Badakhshan,Skazar,Razer Airport,37.752,-89.0154
IataKWH,af,Afghanistan,kwh,Badakhshan,Khwahan,Khwahan Airport,37.883,70.217
IataLQN,af,Afghanistan,lqn,Badghis,Badghis Province,Qala i Naw Airport,34.985,63.1178
IataMMZ,af,Afghanistan,mmz,Faryab,Maymana,Maymana Airport,35.9308,64.7609
IataMZR,af,Afghanistan,mzr,Balkh,Mazar-i-Sharif,Mazar-e Sharif International Airport,36.7069,67.2097
IataOAA,af,Afghanistan,oaa,Logar,Baraki Barak,Forward Operating Base Shank,33.9225,69.0772
IataOAH,af,Afghanistan,oah,Herat,Shindand,Shindand Air Base,33.3913,62.261
IataOAI,af,Afghanistan,oai,Parwan,Bagram,Bagram Airfield,34.9461,69.265
IataOAS,af,Afghanistan,oas,Paktika,Sharana,Sharana Airstrip / Forward Operating Base Sharana,33.1258,68.8385
IataOAZ,af,Afghanistan,oaz,Helmand,Lashkar Gah,Camp Bastion Air Base,31.8638,64.2246
IataOLR,af,Afghanistan,olr,Khost,Khost,Forward Operating Base Salerno,33.3638,69.9561
IataSBF,af,Afghanistan,sbf,Ghazni,Band E Sardeh Dam,Sardeh Band Airport,33.3207,68.6365
IataSGA,af,Afghanistan,sga,Badakhshan,Shighnan,Sheghnan Airport,37.567,71.5
IataTII,af,Afghanistan,tii,Kandahar,Tarinkot,Tarinkot Airport,32.6042,65.8658
IataTQN,af,Afghanistan,tqn,Takhar,Taleqan,Taloqan Airport,36.7707,69.532
IataUND,af,Afghanistan,und,Kunduz,Kunduz,Kunduz Airport,36.6651,68.9108
IataURN,af,Afghanistan,urn,Paktika,Urgun,Urgun Airport,32.9318,69.1563
IataURZ,af,Afghanistan,urz,Kandahar,Orūzgān,Uruzgan Airport,32.903,66.6309
IataZAJ,af,Afghanistan,zaj,Herat,,Zaranj Airport,30.9722,61.8658
IataANU,ag,Antigua and Barbuda,anu,Saint George,St. John's,V. C. Bird International Airport,17.1367,-61.7927
IataBBQ,ag,Antigua and Barbuda,bbq,Barbuda,Codrington,Barbuda Codrington Airport,17.6358,-61.8286
IataAXA,ai,Anguilla,axa,Anguilla,The Valley,Clayton J. Lloyd International Airport,18.2048,-63.0551
IataKFZ,al,Albania,kfz,Northern Albania,Kukës,,42.0358,20.4160
IataEVN,am,Armenia,evn,Erevan,Yerevan,Zvartnots International Airport,40.1473,44.3959
IataLWN,am,Armenia,lwn,Sirak,Gyumri,Gyumri Shirak Airport,40.7504,43.8593
IataANL,ao,Angola,anl,Bie,Andulo,Andulo Airport,-11.4723,16.7109
IataARZ,ao,Angola,arz,Zaire,N'zeto,N'zeto Airport,-7.25944,12.8631
IataAZZ,ao,Angola,azz,Bengo,Ambriz,Ambriz Airport,-7.86222,13.1161
IataBUG,ao,Angola,bug,Benguela,Benguela,Benguela Airport (Gen. V. Deslandes Airport),-12.609,13.4037
IataCAB,ao,Angola,cab,Cabinda,Cabinda,Cabinda Airport,-5.59699,12.1884
IataCAV,ao,Angola,cav,Moxico,Cazombo,Cazombo Airport,-11.8931,22.9164
IataCBT,ao,Angola,cbt,Benguela,Catumbela,Catumbela Airport,-12.4792,13.4869
IataCEO,ao,Angola,ceo,Kwanza Sul,Waku-Kungo,Waco Kungo Airport,-11.4264,15.1014
IataCFF,ao,Angola,cff,Lunda Norte,Cafunfo,Cafunfo Airport,-8.78361,17.9897
IataCNZ,ao,Angola,cnz,Moxico,Cangamba,Cangamba Airport,-13.7106,19.8611
IataCTI,ao,Angola,cti,Kuando Kubango,Cuito Cuanavale,Cuito Cuanavale Airport,-15.1603,19.1561
IataDRC,ao,Angola,drc,Kuando Kubango,Dirico,Dirico Airport,-17.9819,20.7681
IataDUE,ao,Angola,due,Lunda Norte,Dundo,Dundo Airport,-7.40089,20.8185
IataGGC,ao,Angola,ggc,Moxico,Lumbala N'guimbo,Lumbala N'guimbo Airport,-14.105,21.45
IataGXG,ao,Angola,gxg,Uige,Negage,Negage Airport,-7.75451,15.2877
IataJMB,ao,Angola,jmb,Huila,Jamba,Jamba Airport,-14.6982,16.0701
IataKNP,ao,Angola,knp,Malange,Capanda Dam,Kapanda Airport,-9.76937,15.4553
IataLAD,ao,Angola,lad,Luanda,Luanda,Quatro de Fevereiro Airport,-8.85837,13.2312
IataLBZ,ao,Angola,lbz,Lunda Norte,Lucapa,Lucapa Airport,-8.44573,20.7321
IataLLT,ao,Angola,llt,Benguela,Lobito,Lobito Airport,-12.3757,13.561
IataLUO,ao,Angola,luo,Moxico,Luena,Luena Airport,-11.7681,19.8977
IataLZM,ao,Angola,lzm,Lunda Norte,Cuango,Cuango-Luzamba Airport,-9.11596,18.0493
IataMEG,ao,Angola,meg,Malange,Malanje,Malanje Airport,-9.52509,16.3124
IataMSZ,ao,Angola,msz,Namibe,Moçâmedes,Namibe Airport (Yuri Gagarin Airport),-15.2612,12.1468
IataNBJ,ao,Angola,nbj,Luanda Province,Luanda,,-8.8882,13.2453
IataNDD,ao,Angola,ndd,Kwanza Sul,Sumbe,Sumbe Airport,-11.1679,13.8475
IataNDF,ao,Angola,ndf,Kwanza Norte,N'dalatando,N'dalatando Airport,-9.27519,14.9772
IataNOV,ao,Angola,nov,Huambo,Huambo,Albano Machado Airport,-12.8089,15.7605
IataNZA,ao,Angola,nza,Lunda Norte,Nzagi,Nzagi Airport,-7.71694,21.3582
IataPBN,ao,Angola,pbn,Kwanza Sul,Port Amboim,Porto Amboim Airport,-10.722,13.7655
IataPGI,ao,Angola,pgi,Lunda Norte,Dundo,Chitato Airport,-7.35889,20.8047
IataSDD,ao,Angola,sdd,Huila,Lubango,Lubango Mukanka Airport,-14.9247,13.575
IataSPP,ao,Angola,spp,Kuando Kubango,Menongue,Menongue Airport,-14.6576,17.7198
IataSSY,ao,Angola,ssy,Zaire,Mbanza Congo,Mbanza Congo Airport,-6.2699,14.247
IataSVP,ao,Angola,svp,Bie,Kuito,Kuito Airport,-12.4046,16.9474
IataSZA,ao,Angola,sza,Zaire,Soyo,Soyo Airport,-6.14109,12.3718
IataUAL,ao,Angola,ual,Moxico,Luau,Luau Airport,-10.7158,22.2311
IataUGO,ao,Angola,ugo,Uige,Uige,Uige Airport,-7.60307,15.0278
IataVHC,ao,Angola,vhc,Lunda Sul,Saurimo,Henrique de Carvalho Airport,-9.68907,20.4319
IataVPE,ao,Angola,vpe,Cunene,Ngiva,Ondjiva Pereira Airport,-17.0435,15.6838
IataXGN,ao,Angola,xgn,Cunene,Xangongo,Xangongo Airport,-16.7554,14.9653
IataTNM,aq,Antarctica,tnm,Antarctica,Villa Las Estrellas,Teniente R. Marsh Airport,-62.1908,-58.9867
IataAEP,ar,Argentina,aep,Buenos Aires,Buenos Aires,Aeroparque Internacional Jorge Newbery,-34.5589,-58.4164
IataAFA,ar,Argentina,afa,Mendoza,San Rafael Department,San Rafael Airport (Argentina),-34.5883,-68.4039
IataAOL,ar,Argentina,aol,Corrientes,Paso de los Libres,Paso de los Libres Airport,-29.6894,-57.1521
IataAPZ,ar,Argentina,apz,Neuquen,Zapala,Zapala Airport,-38.9755,-70.1136
IataARR,ar,Argentina,arr,Chubut,Alto Río Senguer,Alto Rio Senguer Airport,-45.0136,-70.8122
IataBHI,ar,Argentina,bhi,Buenos Aires,Bahía Blanca,Comandante Espora Airport,-38.725,-62.1693
IataBRC,ar,Argentina,brc,Rio Negro,Bariloche,San Carlos de Bariloche Airport,-41.1512,-71.1575
IataBUE,ar,Argentina,bue,Buenos Aires,Buenos Aires,,-34.8222,-58.5358
IataCCT,ar,Argentina,cct,Rio Negro,Catriel,Colonia Catriel Airport,-37.9102,-67.835
IataCLX,ar,Argentina,clx,Formosa,Clorinda,Clorinda Airport,-25.3036,-57.7344
IataCNQ,ar,Argentina,cnq,Corrientes,Corrientes,Doctor Fernando Piragine Niveyro International Airport,-27.4455,-58.7619
IataCNT,ar,Argentina,cnt,Chaco,Charata,Charata Airport,-27.2164,-61.2103
IataCOC,ar,Argentina,coc,Entre Rios,Concordia,Comodoro Pierrestegui Airport,-31.2969,-57.9966
IataCOR,ar,Argentina,cor,Cordoba,Córdoba,Ingeniero Aeronautico Ambrosio L.V. Taravella International Airport (Pajas Blancas),-31.3236,-64.208
IataCPC,ar,Argentina,cpc,Neuquen,San Martín de los Andes,Aviador Carlos Campos Airport,-40.0754,-71.1373
IataCPG,ar,Argentina,cpg,Buenos Aires,Carmen de Patagones,Carmen de Patagones Airport,-40.7781,-62.9803
IataCRD,ar,Argentina,crd,Chubut,Comodoro Rivadavia,General Enrique Mosconi International Airport,-45.7853,-67.4655
IataCRR,ar,Argentina,crr,Santa Fe,Ceres,Ceres Airport,-29.8723,-61.9279
IataCSZ,ar,Argentina,csz,Buenos Aires,Coronel Suárez,Brigadier Hector Eduardo Ruiz Airport,-37.4461,-61.8893
IataCTC,ar,Argentina,ctc,Catamarca,San Fernando del Valle de Catamarca,Coronel Felipe Varela International Airport,-28.5956,-65.7517
IataCUT,ar,Argentina,cut,Neuquen,Cutral Có,Cutral Co Airport,-38.9397,-69.2646
IataCVH,ar,Argentina,cvh,Neuquen,Lafontaine,Caviahue Airport,-37.8514,-71.0092
IataCVI,ar,Argentina,cvi,Santa Cruz,Caleta Olivia,Caleta Olivia Airport,-46.4318,-67.5186
IataEHL,ar,Argentina,ehl,Rio Negro,El Bolsón,El Bolson Airport,-41.9432,-71.5323
IataELO,ar,Argentina,elo,Misiones,Eldorado,Eldorado Airport,-26.3975,-54.5747
IataEMX,ar,Argentina,emx,Chubut,El Maitén,El Maiten Airport,-42.0292,-71.1725
IataEPA,ar,Argentina,epa,Buenos Aires,Greater Buenos Aires,El Palomar Airport,-34.6099,-58.6126
IataEQS,ar,Argentina,eqs,Chubut,Esquel,Esquel Airport,-42.908,-71.1395
IataEZE,ar,Argentina,eze,Buenos Aires,Buenos Aires,Ministro Pistarini International Airport,-34.8222,-58.5358
IataFMA,ar,Argentina,fma,Formosa,Formosa,Formosa International Airport (El Pucu Airport),-26.2127,-58.2281
IataFTE,ar,Argentina,fte,Santa Cruz,El Calafate,Comandante Armando Tola International Airport,-50.2803,-72.0531
IataGGS,ar,Argentina,ggs,Santa Cruz,Gobernador Gregores,Gobernador Gregores Airport,-48.7831,-70.15
IataGHU,ar,Argentina,ghu,Entre Rios,Gualeguaychu,Gualeguaychu Airport,-33.0103,-58.6131
IataGNR,ar,Argentina,gnr,Rio Negro,General Roca,Dr. Arturo Umberto Illia Airport,-39.0007,-67.6205
IataGPO,ar,Argentina,gpo,La Pampa,General Pico,General Pico Airport,-35.6962,-63.7583
IataHOS,ar,Argentina,hos,Neuquen,Chos Malal,Chos Malal Airport,-37.4447,-70.2225
IataIGB,ar,Argentina,igb,Rio Negro,Ingeniero Jacobacci,Ingeniero Jacobacci Airport (Capitan FAA H. R. Borden Airport),-41.3209,-69.5749
IataIGR,ar,Argentina,igr,Misiones,Puerto Iguazú,Cataratas del Iguazu International Airport,-25.7373,-54.4734
IataING,ar,Argentina,ing,Santa Cruz,El Calafate,,-50.3361,-72.2486
IataIRJ,ar,Argentina,irj,La Rioja,La Rioja,Capitan Vicente Almandos Almonacid Airport,-29.3816,-66.7958
IataJNI,ar,Argentina,jni,Buenos Aires,Junín,Junin Airport,-34.5459,-60.9306
IataJSM,ar,Argentina,jsm,Chubut,José de San Martín,Jose de San Martin Airport,-44.0486,-70.4589
IataJUJ,ar,Argentina,juj,Jujuy,San Salvador de Jujuy,Gobernador Horacio Guzman International Airport,-24.3928,-65.0978
IataLCM,ar,Argentina,lcm,Cordoba,La Cumbre,La Cumbre Airport,-31.0058,-64.5319
IataLCP,ar,Argentina,lcp,Neuquen,Loncopue,Loncopue Airport,-38.0819,-70.6439
IataLGS,ar,Argentina,lgs,Mendoza,Malargüe,Comodoro D. Ricardo Salomon Airport,-35.4936,-69.5743
IataLHS,ar,Argentina,lhs,Santa Cruz,Las Heras,Las Heras Airport,-46.5383,-68.9653
IataLLS,ar,Argentina,lls,Formosa,Las Lomitas,Alferez Armando Rodriguez Airport,-24.7214,-60.5488
IataLMD,ar,Argentina,lmd,Rio Negro,Los Menucos,Los Menucos Airport,-40.8177,-68.0747
IataLPG,ar,Argentina,lpg,Buenos Aires,La Plata,La Plata Airport,-34.9722,-57.8947
IataLUQ,ar,Argentina,luq,San Luis,San Luis,Brigadier Mayor Cesar Raul Ojeda Airport,-33.2732,-66.3564
IataMCS,ar,Argentina,mcs,Corrientes,Monte Caseros,Monte Caseros Airport,-30.2719,-57.6402
IataMDQ,ar,Argentina,mdq,Buenos Aires,Mar del Plata,Astor Piazzolla International Airport,-37.9342,-57.5733
IataMDX,ar,Argentina,mdx,Corrientes,Mercedes,Mercedes Airport,-29.2214,-58.0878
IataMDZ,ar,Argentina,mdz,Mendoza,Mendoza,Gov. Francisco Gabrielli International Airport (El Plumerillo),-32.8317,-68.7929
IataMJR,ar,Argentina,mjr,Buenos Aires,Miramar,Miramar Airport,-38.2271,-57.8697
IataMQD,ar,Argentina,mqd,Rio Negro,Maquinchao,Maquinchao Airport,-41.2431,-68.7078
IataNCJ,ar,Argentina,ncj,Santa Fe,Sunchales,Sunchales Airport,-30.9575,-61.5283
IataNEC,ar,Argentina,nec,Buenos Aires,Necochea,Necochea Airport,-38.4831,-58.8172
IataNQN,ar,Argentina,nqn,Neuquen,Neuquén,Presidente Peron International Air,-38.949,-68.1557
IataOES,ar,Argentina,oes,Rio Negro,San Antonio Oeste,Antoine de Saint Exupery Airport,-40.7512,-65.0343
IataOLN,ar,Argentina,oln,Chubut,Sarmiento,Lago Musters Airport,-45.5824,-68.9998
IataORA,ar,Argentina,ora,Salta,San Ramón de la Nueva Orán,Oran Air,-23.1528,-64.3292
IataOVR,ar,Argentina,ovr,Buenos Aires,Olavarría,Olavarria Airport,-36.89,-60.2166
IataOYA,ar,Argentina,oya,Corrientes,Goya,Goya Airport,-29.1058,-59.2189
IataOYO,ar,Argentina,oyo,Buenos Aires,Tres Arroyos,Tres Arroyos Airport,-38.3869,-60.3297
IataPEH,ar,Argentina,peh,Buenos Aires,Pehuajó,Comodoro Pedro Zanni Airport,-35.8446,-61.8576
IataPIG,ar,Argentina,pig,Buenos Aires,Pigüé,,-37.5651,-62.4175
IataPMQ,ar,Argentina,pmq,Santa Cruz,Perito Moreno,Perito Moreno Airport,-46.5379,-70.9787
IataPMY,ar,Argentina,pmy,Chubut,Puerto Madryn,El Tehuelche Airport,-42.7592,-65.1027
IataPRA,ar,Argentina,pra,Entre Rios,Paraná,General Justo Jose de Urquiza Airport,-31.7948,-60.4804
IataPRQ,ar,Argentina,prq,Chaco,Presidencia Roque Sáenz Peña,Presidencia Roque Saenz Pena Airport,-26.7536,-60.4922
IataPSS,ar,Argentina,pss,Misiones,Posadas,Libertador General Jose de San Martin Airport,-27.3858,-55.9707
IataPUD,ar,Argentina,pud,Santa Cruz,Puerto Deseado,Puerto Deseado Airport,-47.7353,-65.9041
IataRAF,ar,Argentina,raf,Santa Fe,Rafaela,Rafaela Airport,-31.2825,-61.5017
IataRCQ,ar,Argentina,rcq,Santa Fe,Reconquista,Reconquista Airport,-29.2103,-59.68
IataRCU,ar,Argentina,rcu,Cordoba,Río Cuarto,Las Higueras Airport,-33.0851,-64.2613
IataRDS,ar,Argentina,rds,Neuquen,Rincón de Los Sauces,Rincon de los Sauces Airport,-37.3906,-68.9042
IataREL,ar,Argentina,rel,Chubut,Trelew,Almirante Marcos A. Zar Airport,-43.2105,-65.2703
IataRES,ar,Argentina,res,Chaco,Resistencia,Resistencia International Airport,-27.45,-59.0561
IataRGA,ar,Argentina,rga,Tierra del Fuego,Río Grande,Hermes Quijada International Airport,-53.7777,-67.7494
IataRGL,ar,Argentina,rgl,Santa Cruz,Río Gallegos,Piloto Civil Norberto Fernandez International Airport,-51.6089,-69.3126
IataRHD,ar,Argentina,rhd,Santiago del Estero,Termas de Río Hondo,Termas de Rio Hondo Airport,-27.4966,-64.936
IataRLO,ar,Argentina,rlo,San Luis,Santa Rosa,Valle del Conlara Airport,-32.3847,-65.1865
IataROS,ar,Argentina,ros,Santa Fe,Rosario,Rosario - Islas Malvinas International Airport,-32.9036,-60.785
IataROY,ar,Argentina,roy,Chubut,Río Mayo,Rio Mayo Airport,-45.7039,-70.2456
IataRSA,ar,Argentina,rsa,La Pampa,Santa Rosa,Santa Rosa Airport (Argentina),-36.5883,-64.2757
IataRYO,ar,Argentina,ryo,Santa Cruz,Río Turbio,Rio Turbio Airport,-51.605,-72.2203
IataRZA,ar,Argentina,rza,Santa Cruz,Puerto Santa Cruz,Santa Cruz Airport (Argentina),-50.0165,-68.5792
IataSDE,ar,Argentina,sde,Santiago del Estero,Santiago del Estero,Vicecomodoro Angel de la Paz Aragones Airport,-27.7656,-64.31
IataSFN,ar,Argentina,sfn,Santa Fe,Santa Fe,Sauce Viejo Airport,-31.7117,-60.8117
IataSGV,ar,Argentina,sgv,Rio Negro,Sierra Grande,Sierra Grande Airport,-41.5917,-65.3394
IataSLA,ar,Argentina,sla,Salta,Salta,Martin Miguel de Guemes International Airport,-24.856,-65.4862
IataSST,ar,Argentina,sst,Buenos Aires,Santa Teresita,Santa Teresita Airport,-36.5423,-56.7218
IataTDL,ar,Argentina,tdl,Buenos Aires,Tandil,Tandil Airport,-37.2374,-59.2279
IataTTG,ar,Argentina,ttg,Salta,Tartagal,Tartagal Airport,-22.6196,-63.7937
IataTUC,ar,Argentina,tuc,Tucuman,San Miguel de Tucumán,Teniente General Benjamin Matienzo International Airport,-26.8409,-65.1049
IataUAQ,ar,Argentina,uaq,San Juan,San Juan,Domingo Faustino Sarmiento Airport,-31.5715,-68.4182
IataULA,ar,Argentina,ula,Santa Cruz,San Julian,Capitan Jose Daniel Vazquez Airport,-49.3068,-67.8026
IataUSH,ar,Argentina,ush,Tierra del Fuego,Ushuaia,Ushuaia - Malvinas Argentinas International Airport,-54.8433,-68.2958
IataUZU,ar,Argentina,uzu,Corrientes,Curuzu Cuatia,Curuzu Cuatia Airport,-29.7706,-57.9789
IataVCF,ar,Argentina,vcf,Rio Negro,Valcheta,Valcheta Airport,-40.7,-66.15
IataVDM,ar,Argentina,vdm,Rio Negro,Viedma,Gobernador Edgardo Castello Airport,-40.8692,-63.0004
IataVDR,ar,Argentina,vdr,Cordoba,Villa Dolores,Villa Dolores Airport,-31.9452,-65.1463
IataVGS,ar,Argentina,vgs,Buenos Aires,General Villegas,General Villegas Airport,-35,-63
IataVLG,ar,Argentina,vlg,Buenos Aires,Villa Gesell,Villa Gesell Airport,-37.2354,-57.0292
IataVME,ar,Argentina,vme,San Luis,Villa Mercedes,Villa Reynolds Airport,-33.7299,-65.3874
IataOFU,as,American Samoa,ofu,Eastern District,Ofu-Olosega,Ofu Airport,-14.1844,-169.67
IataPPG,as,American Samoa,ppg,Eastern District,Pago Pago,Pago Pago International Airport,-14.331,-170.71
IataTAV,as,American Samoa,tav,Eastern District,,Tau Airport,-14.2292,-169.511
IataGRZ,at,Austria,grz,Steiermark,Graz,Graz Airport,46.9911,15.4396
IataHOH,at,Austria,hoh,Vorarlberg,Hohenems,Hohenems-Dornbirn Airport,47.385,9.7
IataINN,at,Austria,inn,Tirol,Innsbruck,Innsbruck Airport (Kranebitten Airport),47.2602,11.344
IataKLU,at,Austria,klu,Karnten,Klagenfurt am Wörthersee,Klagenfurt Airport,46.6425,14.3377
IataLNZ,at,Austria,lnz,Oberosterreich,Linz,Linz Airport (Blue Danube Airport),48.2332,14.1875
IataSZG,at,Austria,szg,Salzburg,Salzburg,Salzburg Airport,47.7933,13.0043
IataVIE,at,Austria,vie,Niederosterreich,Vienna,Vienna International Airport,48.1103,16.5697
IataAAB,au,Australia,aab,Queensland,Tanbar,Arrabury Airport,-26.693,141.048
IataABG,au,Australia,abg,Queensland,Abingdon Downs,Abingdon Airport,-17.6167,143.167
IataABH,au,Australia,abh,Queensland,Alpha,Alpha Airport,-23.6461,146.584
IataABM,au,Australia,abm,Queensland,Bamaga,Northern Peninsula Airport,-10.9508,142.459
IataABX,au,Australia,abx,New South Wales,Albury,Albury Airport,-36.0678,146.958
IataACF,au,Australia,acf,Queensland,Brisbane,,-27.5724,153.0042
IataADL,au,Australia,adl,South Australia,Adelaide,Adelaide Airport,-34.945,138.531
IataADO,au,Australia,ado,South Australia,Andamooka,Andamooka Airport,-30.4383,137.137
IataAGW,au,Australia,agw,Queensland,Agnew,Agnew Airport,-12.1456,142.149
IataALH,au,Australia,alh,Western Australia,Albany,Albany Airport,-34.9433,117.809
IataAMT,au,Australia,amt,South Australia,Amata,Amata Airport,-26.1083,131.207
IataAMX,au,Australia,amx,Northern Territory,,Ammaroo Airport,-21.7383,135.242
IataANZ,au,Australia,anz,Northern Territory,Angus Downs Station,Angus Downs Airport,-25.0325,132.275
IataARM,au,Australia,arm,New South Wales,Armidale,Armidale Airport,-30.5281,151.617
IataARY,au,Australia,ary,Victoria,Ararat,Ararat Airport,-37.3094,142.989
IataASP,au,Australia,asp,Northern Territory,Alice Springs,Alice Springs Airport,-23.8067,133.902
IataAUD,au,Australia,aud,Queensland,Augustus Downs,Augustus Downs Airport,-18.515,139.878
IataAUU,au,Australia,auu,Queensland,Aurukun,Aurukun Airport,-13.3541,141.721
IataAVG,au,Australia,avg,Northern Territory,Auvergne Station,Auvergne Airport,-15.7,130
IataAVV,au,Australia,avv,Victoria,Melbourne,Avalon Airport,-38.0394,144.469
IataAWN,au,Australia,awn,South Australia,,Alton Downs Airport,-26.5333,139.267
IataAWP,au,Australia,awp,Northern Territory,,Austral Downs Airport,-20.5,137.75
IataAXC,au,Australia,axc,Queensland,Aramac,Aramac Airport,-22.9667,145.242
IataAXL,au,Australia,axl,Northern Territory,,Alexandria Homestead Airport,-19.0602,136.71
IataAYD,au,Australia,ayd,Northern Territory,Alroy Downs,Alroy Downs Airport,-19.2908,136.079
IataAYL,au,Australia,ayl,Northern Territory,,Anthony Lagoon Airport,-18.0181,135.535
IataAYQ,au,Australia,ayq,Northern Territory,Yulara,Ayers Rock Airport,-25.1861,130.976
IataAYR,au,Australia,ayr,Queensland,Ayr,Ayr Airport,-19.5844,147.329
IataBBL,au,Australia,bbl,Queensland,,Ballera Airport,-27.4056,141.809
IataBCI,au,Australia,bci,Queensland,Barcaldine,Barcaldine Airport,-23.5653,145.307
IataBCK,au,Australia,bck,Queensland,Black River Falls,Bolwarra Airport,-17.3883,144.169
IataBCZ,au,Australia,bcz,Northern Territory,Bickerton Island,Bickerton Island Airport,-13.7808,136.202
IataBDB,au,Australia,bdb,Queensland,Bundaberg,Bundaberg Airport,-24.9039,152.319
IataBDD,au,Australia,bdd,Queensland,Badu Island,Badu Island Airport,-10.15,142.173
IataBDW,au,Australia,bdw,Western Australia,,Bedford Downs Airport,-17.2867,127.463
IataBEE,au,Australia,bee,Western Australia,Dampier Peninsula,Beagle Bay Airport,-17.0165,122.646
IataBEO,au,Australia,beo,New South Wales,City of Lake Macquarie,Lake Macquarie Airport (Belmont Airport),-33.0667,151.648
IataBEU,au,Australia,beu,Queensland,Bedourie,Bedourie Airport,-24.3461,139.46
IataBFC,au,Australia,bfc,Queensland,,Bloomfield Airport,-15.8736,145.33
IataBHQ,au,Australia,bhq,New South Wales,Broken Hill,Broken Hill Airport,-32.0014,141.472
IataBHS,au,Australia,bhs,New South Wales,Bathurst,Bathurst Airport,-33.4094,149.652
IataBHT,au,Australia,bht,Queensland,Brighton Downs,Brighton Downs Airport,-23.3639,141.563
IataBIP,au,Australia,bip,Queensland,,Bulimba Airport,-16.8808,143.479
IataBIW,au,Australia,biw,Western Australia,,Billiluna Airport,-19.5667,127.667
IataBKP,au,Australia,bkp,Queensland,,Barkly Downs Airport,-20.4958,138.475
IataBKQ,au,Australia,bkq,Queensland,Blackall,Blackall Airport,-24.4278,145.429
IataBLN,au,Australia,bln,Victoria,Benalla,Benalla Airport,-36.5519,146.007
IataBLS,au,Australia,bls,Queensland,,Bollon Airport,-28.0583,147.483
IataBLT,au,Australia,blt,Queensland,,Blackwater Airport,-23.6031,148.807
IataBME,au,Australia,bme,Western Australia,Broome,Broome International Airport,-17.9447,122.232
IataBMP,au,Australia,bmp,Queensland,,Brampton Island Airport,-20.8033,149.27
IataBNE,au,Australia,bne,Queensland,Brisbane,Brisbane Airport,-27.3842,153.117
IataBNK,au,Australia,bnk,New South Wales,Ballina,Ballina Byron Gateway Airport,-28.8339,153.562
IataBOX,au,Australia,box,Northern Territory,Borroloola,Borroloola Airport,-16.0753,136.302
IataBQB,au,Australia,bqb,Western Australia,Busselton,Busselton Regional Airport,-33.6884,115.402
IataBQL,au,Australia,bql,Queensland,,Boulia Airport,-22.9133,139.9
IataBQW,au,Australia,bqw,Western Australia,Balgo,Balgo Hill Airport,-20.1483,127.973
IataBRJ,au,Australia,brj,Victoria,,Bright Airport,-36.733,146.967
IataBRK,au,Australia,brk,New South Wales,Bourke,Bourke Airport,-30.0392,145.952
IataBRT,au,Australia,brt,Northern Territory,Bathurst Island,Bathurst Island Airport,-11.7692,130.62
IataBSJ,au,Australia,bsj,Victoria,Bairnsdale,Bairnsdale Airport,-37.8875,147.568
IataBTD,au,Australia,btd,Northern Territory,,Brunette Downs Airport,-18.64,135.938
IataBTX,au,Australia,btx,Queensland,,Betoota Airport,-25.6417,140.783
IataBUC,au,Australia,buc,Queensland,,Burketown Airport,-17.7486,139.534
IataBUY,au,Australia,buy,Western Australia,,Bunbury Airport,-33.3783,115.677
IataBVI,au,Australia,bvi,Queensland,Birdsville,Birdsville Airport,-25.8975,139.348
IataBVW,au,Australia,bvw,Queensland,,Batavia Downs Airport,-12.6592,142.675
IataBVZ,au,Australia,bvz,Western Australia,Wunaamin Miliwundi Ranges,Beverley Springs Airport,-16.7333,125.433
IataBWB,au,Australia,bwb,Western Australia,,Barrow Island Airport,-20.8644,115.406
IataBWQ,au,Australia,bwq,New South Wales,,Brewarrina Airport,-29.9739,146.817
IataBWT,au,Australia,bwt,Tasmania,Burnie,Burnie Airport,-40.9989,145.731
IataBWU,au,Australia,bwu,New South Wales,Sydney,Bankstown Airport,-33.9244,150.988
IataBXF,au,Australia,bxf,Western Australia,Pumululu National Park,Bellburn Airstrip,-17.545,128.305
IataBXG,au,Australia,bxg,Victoria,,Bendigo Airport,-36.7394,144.33
IataBYP,au,Australia,byp,Western Australia,,Barimunya Airport,-22.6739,119.166
IataBYX,au,Australia,byx,Northern Territory,Baniyala,Baniyala Airport,-13.1981,136.227
IataBZD,au,Australia,bzd,New South Wales,,Balranald Airport,-34.6236,143.578
IataBZP,au,Australia,bzp,Queensland,Lakefield National Park,Bizant Airport,-14.7403,144.119
IataCAZ,au,Australia,caz,New South Wales,Cobar,Cobar Airport,-31.5383,145.794
IataCBC,au,Australia,cbc,Western Australia,,Cherrabun Airport,-18.9178,125.538
IataCBI,au,Australia,cbi,Tasmania,Cape Barren Island,Cape Barren Island Airport,-40.3917,148.017
IataCBR,au,Australia,cbr,Australian Capital Territory,Canberra,Canberra Airport,-35.3069,149.195
IataCBX,au,Australia,cbx,New South Wales,,Condobolin Airport,-33.0644,147.209
IataCBY,au,Australia,cby,Queensland,Canobie,Canobie Airport,-19.4794,140.927
IataCCL,au,Australia,ccl,Queensland,Chinchilla,Chinchilla Airport,-26.775,150.617
IataCCW,au,Australia,ccw,South Australia,,Cowell Airport,-33.6667,136.892
IataCDA,au,Australia,cda,Northern Territory,,Cooinda Airport,-12.9033,132.532
IataCDQ,au,Australia,cdq,Queensland,,Croydon Airport,-18.225,142.258
IataCDU,au,Australia,cdu,New South Wales,Cobbitty,Camden Airport,-34.0403,150.687
IataCED,au,Australia,ced,South Australia,Ceduna,Ceduna Airport,-32.1306,133.71
IataCES,au,Australia,ces,New South Wales,,Cessnock Airport,-32.7875,151.342
IataCFH,au,Australia,cfh,South Australia,Clifton Hills,Clifton Hills Airport,-27.0183,138.892
IataCFI,au,Australia,cfi,Northern Territory,,Camfield Airport,-17.0217,131.327
IataCFP,au,Australia,cfp,Queensland,Carpentaria Downs,Carpentaria Downs Airport,-18.7167,144.317
IataCFS,au,Australia,cfs,New South Wales,Coffs Harbour,Coffs Harbour Airport,-30.3206,153.116
IataCGV,au,Australia,cgv,Western Australia,,Caiguna Airport,-32.265,125.493
IataCIE,au,Australia,cie,Western Australia,Collie,Collie Airport,-33.3667,116.217
IataCJF,au,Australia,cjf,Western Australia,Coondewanna,Coondewanna Airport,-22.9667,118.813
IataCKI,au,Australia,cki,Northern Territory,Minjilang,Croker Island Airport,-11.165,132.483
IataCKW,au,Australia,ckw,Western Australia,Christmas Creek Mine,Christmas Creek Mine Airport,-22.3543,119.643
IataCLH,au,Australia,clh,New South Wales,,Coolah Airport,-31.7733,149.61
IataCMA,au,Australia,cma,Queensland,,Cunnamulla Airport,-28.03,145.622
IataCMD,au,Australia,cmd,New South Wales,,Cootamundra Airport,-34.6239,148.028
IataCML,au,Australia,cml,Queensland,,Camooweal Airport,-19.9117,138.125
IataCMQ,au,Australia,cmq,Queensland,Clermont,Clermont Airport,-22.7731,147.621
IataCNB,au,Australia,cnb,New South Wales,,Coonamble Airport,-30.9833,148.376
IataCNC,au,Australia,cnc,Queensland,,Coconut Island Airport,-10.05,143.07
IataCNJ,au,Australia,cnj,Queensland,Cloncurry,Cloncurry Airport,-20.6686,140.504
IataCNS,au,Australia,cns,Queensland,Cairns,Cairns Airport,-16.8858,145.755
IataCOB,au,Australia,cob,Northern Territory,Coolibah,Coolibah Airport,-15.5483,130.962
IataCOJ,au,Australia,coj,New South Wales,,Coonabarabran Airport,-31.3325,149.267
IataCOY,au,Australia,coy,Western Australia,Coolawanyah Station,Coolawanyah Station Airport,-21.7946,117.755
IataCPD,au,Australia,cpd,South Australia,Coober Pedy,Coober Pedy Airport,-29.04,134.721
IataCQP,au,Australia,cqp,Queensland,,Cape Flattery Airport,-14.9708,145.312
IataCRB,au,Australia,crb,New South Wales,,Collarenebri Airport,-29.5217,148.582
IataCRH,au,Australia,crh,Queensland,Cherrabah Homestead Resort,Cherrabah Airport,-28.4301,152.089
IataCRJ,au,Australia,crj,South Australia,Coorabie,Coorabie Airport,-31.8944,132.296
IataCRY,au,Australia,cry,Western Australia,Carlton Hill,Carlton Hill Airport,-15.5019,128.534
IataCSD,au,Australia,csd,Northern Territory,Cresswell Downs,Cresswell Downs Airport,-17.948,135.916
IataCSI,au,Australia,csi,New South Wales,,Casino Airport,-28.8828,153.067
IataCTL,au,Australia,ctl,Queensland,Charleville,Charleville Airport,-26.4133,146.262
IataCTN,au,Australia,ctn,Queensland,Cooktown,Cooktown Airport,-15.4447,145.184
IataCTR,au,Australia,ctr,Northern Territory,,Cattle Creek Airport,-17.607,131.549
IataCUD,au,Australia,cud,Queensland,Caloundra,Caloundra Airport,-26.8,153.1
IataCUG,au,Australia,cug,New South Wales,,Cudal Airport,-33.2783,148.763
IataCUQ,au,Australia,cuq,Queensland,Coen,Coen Airport,-13.7611,143.113
IataCUY,au,Australia,cuy,Western Australia,,Cue Airport,-27.4467,117.918
IataCVC,au,Australia,cvc,South Australia,,Cleve Airport,-33.7097,136.505
IataCVQ,au,Australia,cvq,Western Australia,Carnarvon,Carnarvon Airport,-24.8802,113.672
IataCWR,au,Australia,cwr,South Australia,,Cowarie Airport,-27.7117,138.328
IataCWT,au,Australia,cwt,New South Wales,,Cowra Airport,-33.8447,148.649
IataCWW,au,Australia,cww,New South Wales,,Corowa Airport,-35.9947,146.357
IataCXQ,au,Australia,cxq,Western Australia,Wangkat Jungka,Christmas Creek Stn Airport,-22.3567,119.652
IataCXT,au,Australia,cxt,Queensland,,Charters Towers Airport,-20.0431,146.273
IataCYG,au,Australia,cyg,Victoria,Corryong,Corryong Airport,-36.1828,147.888
IataCZY,au,Australia,czy,Queensland,,Cluny Airport,-24.5167,139.617
IataDBO,au,Australia,dbo,New South Wales,Dubbo,Dubbo City Regional Airport,-32.2167,148.575
IataDBY,au,Australia,dby,Queensland,,Dalby Airport,-27.1553,151.267
IataDCN,au,Australia,dcn,Western Australia,Derby,RAAF Base Curtin,-17.5814,123.828
IataDDN,au,Australia,ddn,Queensland,,Delta Downs Airport,-16.9917,141.317
IataDFP,au,Australia,dfp,Queensland,Palmer,Drumduff Airport,-16.053,143.012
IataDGD,au,Australia,dgd,Western Australia,,Dalgaranga Airport,-27.8303,117.316
IataDGE,au,Australia,dge,New South Wales,Mudgee,Mudgee Airport,-32.5625,149.611
IataDHD,au,Australia,dhd,Queensland,,Durham Downs Airport,-27.075,141.9
IataDKI,au,Australia,dki,Queensland,Dunk Island,Dunk Island Airport,-17.9417,146.14
IataDKV,au,Australia,dkv,Northern Territory,Kaltukatjara,Docker River Airport,-24.86,129.07
IataDLK,au,Australia,dlk,South Australia,Dulkaninna,Dulkaninna Airport,-29.0133,138.481
IataDLV,au,Australia,dlv,Northern Territory,,Delissaville Airport,-12.55,130.685
IataDMD,au,Australia,dmd,Queensland,Doomadgee,Doomadgee Airport,-17.9403,138.822
IataDNB,au,Australia,dnb,Queensland,Maramie,Dunbar Airport,-16.05,142.4
IataDNG,au,Australia,dng,Western Australia,Drysdale River,Doongan Airport,-15.3864,126.302
IataDNM,au,Australia,dnm,Western Australia,,Denham Airport,-25.8882,113.577
IataDNQ,au,Australia,dnq,New South Wales,Deniliquin,Deniliquin Airport,-35.5594,144.946
IataDOX,au,Australia,dox,Western Australia,Port Denison,Dongara Airport,-29.2981,114.927
IataDPO,au,Australia,dpo,Tasmania,Devonport,Devonport Airport,-41.1697,146.43
IataDRB,au,Australia,drb,Western Australia,Derby,Derby Airport,-17.37,123.661
IataDRD,au,Australia,drd,Queensland,Dorunda Outstation,Dorunda Airport,-16.5537,141.824
IataDRN,au,Australia,drn,Queensland,Dirranbandi,Dirranbandi Airport,-28.5917,148.217
IataDRR,au,Australia,drr,Queensland,,Durrie Airport,-25.685,140.228
IataDRW,au,Australia,drw,Northern Territory,Darwin,Darwin International Airport,-12.4147,130.877
IataDRY,au,Australia,dry,Western Australia,Drysdale River,Drysdale River Airport,-15.7136,126.381
IataDVP,au,Australia,dvp,Queensland,,Davenport Downs Airport,-24.15,141.108
IataDVR,au,Australia,dvr,Northern Territory,Nauiyu,Daly River Airport,-13.7498,130.694
IataDXD,au,Australia,dxd,Queensland,New Dixie,Dixie Airport,-15.1175,143.316
IataDYA,au,Australia,dya,Queensland,,Dysart Airport,-22.6222,148.364
IataDYM,au,Australia,dym,Queensland,Diamantina Lakes,Diamantina Lakes Airport,-23.7617,141.145
IataDYW,au,Australia,dyw,Northern Territory,Daly Waters,Daly Waters Airport,-16.2647,133.383
IataECH,au,Australia,ech,Victoria,,Echuca Airport,-36.1572,144.762
IataEDD,au,Australia,edd,Northern Territory,Ghan,Erldunda Airport,-25.2058,133.254
IataEDR,au,Australia,edr,Queensland,Pormpuraaw,Edward River Airport,-14.8965,141.609
IataEIH,au,Australia,eih,Queensland,Einasleigh,Einasleigh Airport,-18.5033,144.094
IataEKD,au,Australia,ekd,Northern Territory,,Elkedra Airport,-21.1725,135.444
IataELC,au,Australia,elc,Northern Territory,Elcho Island,Elcho Island Airport,-12.0194,135.571
IataEMD,au,Australia,emd,Queensland,Emerald,Emerald Airport,-23.5675,148.179
IataENB,au,Australia,enb,Western Australia,Eneabba,Eneabba Airport,-29.8325,115.246
IataEPR,au,Australia,epr,Western Australia,Esperance,Esperance Airport,-33.6844,121.823
IataERB,au,Australia,erb,South Australia,,Pukatja Airport (Ernabella Airport),-26.2633,132.182
IataERQ,au,Australia,erq,Queensland,Elrose Mine,Elrose Airport,-20.9764,141.007
IataETD,au,Australia,etd,South Australia,Etadunna,Etadunna Airport,-28.7408,138.589
IataEUC,au,Australia,euc,Western Australia,,Eucla Airport,-31.7,128.883
IataEVD,au,Australia,evd,Northern Territory,Eva Downs,Eva Downs Airport,-18.001,134.863
IataEVH,au,Australia,evh,New South Wales,,Evans Head Memorial Aerodrome,-29.0933,153.42
IataEXM,au,Australia,exm,Western Australia,Exmouth,Exmouth Airport,-22.0333,114.1
IataFIK,au,Australia,fik,Northern Territory,Finke,Finke Airport,-25.5947,134.583
IataFIZ,au,Australia,fiz,Western Australia,,Fitzroy Crossing Airport,-18.1819,125.559
IataFLS,au,Australia,fls,Tasmania,Whitemark,Flinders Island Airport,-40.0917,147.993
IataFLY,au,Australia,fly,New South Wales,,Finley Airport,-35.6667,145.55
IataFOS,au,Australia,fos,Western Australia,,Forrest Airport,-30.8381,128.115
IataFOT,au,Australia,fot,New South Wales,,Forster (Wallis Island) Airport,-32.2042,152.479
IataFRB,au,Australia,frb,New South Wales,Forbes,Forbes Airport,-33.3636,147.935
IataFSL,au,Australia,fsl,Western Australia,Fossil Downs Station,Fossil Downs Airport,-18.1321,125.787
IataFVL,au,Australia,fvl,Western Australia,,Flora Valley Airport,-18.2833,128.417
IataFVR,au,Australia,fvr,Western Australia,Oombulgurri,Forrest River Airport,-15.1647,127.84
IataGAH,au,Australia,gah,Queensland,Gayndah,Gayndah Airport,-25.6144,151.619
IataGBL,au,Australia,gbl,Northern Territory,Goulburn Islands,South Goulburn Island Airport,-11.65,133.382
IataGBP,au,Australia,gbp,Queensland,Gamboola,Gamboola Airport,-16.55,143.667
IataGBV,au,Australia,gbv,Western Australia,Gibb,Gibb River Airport,-16.4233,126.445
IataGBW,au,Australia,gbw,Western Australia,Ginbata,Ginbata Airport,-22.5812,120.036
IataGDD,au,Australia,gdd,Western Australia,Gordon Downs,Gordon Downs Airport,-18.6781,128.592
IataGEE,au,Australia,gee,Tasmania,George Town,George Town Aerodrome,-41.08,146.84
IataGET,au,Australia,get,Western Australia,Geraldton,Geraldton Airport,-28.7961,114.707
IataGEX,au,Australia,gex,Victoria,,Geelong Airport,-38.225,144.333
IataGFE,au,Australia,gfe,New South Wales,Grenfell,Grenfell Airport,-34,148.133
IataGFF,au,Australia,gff,New South Wales,City of Griffith,Griffith Airport,-34.2508,146.067
IataGFN,au,Australia,gfn,New South Wales,Grafton,Clarence Valley Regional Airport,-29.7594,153.03
IataGGD,au,Australia,ggd,Queensland,,Gregory Downs Airport,-18.625,139.233
IataGIC,au,Australia,gic,Queensland,Boigu Island,Boigu Island Airport,-9.23278,142.218
IataGKL,au,Australia,gkl,Queensland,Great Keppel Island,Great Keppel Island Airport,-23.1833,150.942
IataGLG,au,Australia,glg,Queensland,,Glengyle Airport,-24.8083,139.6
IataGLI,au,Australia,gli,New South Wales,Glen Innes,Glen Innes Airport,-29.675,151.689
IataGLM,au,Australia,glm,Queensland,,Glenormiston Airport,-22.8883,138.825
IataGLT,au,Australia,glt,Queensland,Gladstone,Gladstone Airport,-23.8697,151.223
IataGLY,au,Australia,gly,Western Australia,,Goldsworthy Airport,-20.333,119.5
IataGOO,au,Australia,goo,Queensland,Goondiwindi,Goondiwindi Airport,-28.5214,150.32
IataGOS,au,Australia,gos,New South Wales,Gosford,Somersby Airfield,-33.3678,151.3
IataGOV,au,Australia,gov,Northern Territory,Nhulunbuy,Gove Airport,-12.2694,136.818
IataGPD,au,Australia,gpd,Queensland,Mount Gordon Mine,Mount Gordon Airport,-19.7726,139.404
IataGPN,au,Australia,gpn,Northern Territory,Melville Island,Garden Point Airport,-11.4025,130.422
IataGSC,au,Australia,gsc,Western Australia,Gascoyne Junction,Gascoyne Junction Airport,-25.0546,115.203
IataGSN,au,Australia,gsn,South Australia,Mount Gunson,Mount Gunson Airport,-31.4597,137.174
IataGTE,au,Australia,gte,Northern Territory,Groote Eylandt,Groote Eylandt Airport,-13.975,136.46
IataGTS,au,Australia,gts,Northern Territory,The Granites Gold Mine,The Granites Airport,-26.9483,133.607
IataGTT,au,Australia,gtt,Queensland,Georgetown,Georgetown Airport,-18.305,143.53
IataGUH,au,Australia,guh,New South Wales,,Gunnedah Airport,-30.9611,150.251
IataGUL,au,Australia,gul,New South Wales,,Goulburn Airport,-34.8103,149.726
IataGVP,au,Australia,gvp,Queensland,,Greenvale Airport,-18.9966,145.014
IataGYL,au,Australia,gyl,Western Australia,,Argyle Airport,-16.6369,128.451
IataGYP,au,Australia,gyp,Queensland,Gympie,Gympie Airport,-26.2828,152.702
IataHAT,au,Australia,hat,Queensland,Shelburne,Heathlands Airport,-11.7369,142.577
IataHBA,au,Australia,hba,Tasmania,Hobart,Hobart International Airport,-42.8361,147.51
IataHCQ,au,Australia,hcq,Western Australia,,Halls Creek Airport,-18.2339,127.67
IataHGD,au,Australia,hgd,Queensland,Hughenden,Hughenden Airport,-20.815,144.225
IataHID,au,Australia,hid,Queensland,Horn,Horn Island Airport,-10.5864,142.29
IataHIG,au,Australia,hig,Queensland,Highbury,Highbury Airport,-16.4244,143.146
IataHIP,au,Australia,hip,Queensland,,Headingly Airport,-21.3333,138.283
IataHLL,au,Australia,hll,Western Australia,Hillside,Hillside Airport,-21.7244,119.392
IataHLS,au,Australia,hls,Tasmania,,St Helens Airport,-41.3367,148.282
IataHLT,au,Australia,hlt,Victoria,Hamilton,Hamilton Airport,-37.6489,142.065
IataHLV,au,Australia,hlv,Queensland,Helenvale,Helenvale Airport,-15.6858,145.215
IataHMG,au,Australia,hmg,Northern Territory,Hermannsburg (Ntaria),Hermannsburg Airport,-23.93,132.805
IataHOK,au,Australia,hok,Northern Territory,Lajamanu,Hooker Creek Airport,-18.3367,130.638
IataHPE,au,Australia,hpe,Queensland,Hope Vale,Hopevale Airport,-15.2923,145.104
IataHRY,au,Australia,hry,Northern Territory,Ghan,Henbury Airport,-24.584,133.236
IataHSM,au,Australia,hsm,Victoria,,Horsham Airport,-36.6697,142.173
IataHTI,au,Australia,hti,Queensland,Whitsunday Islands,Great Barrier Reef Airport,-20.3581,148.952
IataHTU,au,Australia,htu,Victoria,,Hopetoun Airport,-35.7153,142.36
IataHUB,au,Australia,hub,Northern Territory,,Humbert River Airport,-16.4897,130.63
IataHVB,au,Australia,hvb,Queensland,Hervey Bay,Hervey Bay Airport,-25.3189,152.88
IataHWK,au,Australia,hwk,South Australia,Hawker,Wilpena Pound Airport,-31.8559,138.468
IataHXX,au,Australia,hxx,New South Wales,Hay,Hay Airport,-34.5314,144.83
IataIDK,au,Australia,idk,South Australia,Indulkana,Indulkana Airport,-26.9667,133.325
IataIFF,au,Australia,iff,Queensland,,Iffley Airport,-18.9,141.217
IataIFL,au,Australia,ifl,Queensland,,Innisfail Airport,-17.5594,146.012
IataIGH,au,Australia,igh,Queensland,,Ingham Airport,-18.6606,146.152
IataIKP,au,Australia,ikp,Queensland,Inkerman,Inkerman Airport,-16.275,141.442
IataINJ,au,Australia,inj,Queensland,Injune,Injune Airport,-25.851,148.55
IataINM,au,Australia,inm,South Australia,,Innamincka Airport,-27.7,140.733
IataIRG,au,Australia,irg,Queensland,Lockhart River,Lockhart River Airport,-12.7869,143.305
IataISA,au,Australia,isa,Queensland,Mount Isa,Mount Isa Airport,-20.6639,139.489
IataISI,au,Australia,isi,Queensland,,Isisford Airport,-24.2583,144.425
IataIVR,au,Australia,ivr,New South Wales,Inverell,Inverell Airport,-29.8883,151.144
IataIVW,au,Australia,ivw,Northern Territory,Inverway,Inverway Airport,-17.8411,129.643
IataJAB,au,Australia,jab,Northern Territory,Ranger Uranium Mine,Jabiru Airport,-12.6583,132.893
IataJAD,au,Australia,jad,Western Australia,Perth,Jandakot Airport,-32.0975,115.881
IataJCK,au,Australia,jck,Queensland,,Julia Creek Airport,-20.6683,141.723
IataJUN,au,Australia,jun,Queensland,Jundah,Jundah Airport,-24.8417,143.058
IataJUR,au,Australia,jur,Western Australia,Jurien Bay,Jurien Bay Airport,-30.3016,115.056
IataKAX,au,Australia,kax,Western Australia,Kalbarri,Kalbarri Airport,-27.6928,114.259
IataKBB,au,Australia,kbb,Northern Territory,Kirkimbie,Kirkimbie Airport,-17.7792,129.21
IataKBD,au,Australia,kbd,Western Australia,Kimberley Downs,Kimberley Downs Airport,-17.3978,124.355
IataKBJ,au,Australia,kbj,Northern Territory,Petermann,Kings Canyon Airport,-24.26,131.49
IataKBY,au,Australia,kby,South Australia,,Streaky Bay Airport,-32.8358,134.293
IataKCE,au,Australia,kce,Queensland,,Collinsville Airport,-20.5967,147.86
IataKCS,au,Australia,kcs,Northern Territory,Petermann,Kings Creek Station Airport,-24.4233,131.835
IataKDB,au,Australia,kdb,Western Australia,Kambalda West,Kambalda Airport,-31.1907,121.598
IataKDS,au,Australia,kds,Queensland,Kamaran Downs,Kamaran Downs Airport,-24.3388,139.279
IataKFE,au,Australia,kfe,Western Australia,Cloudbreak Village,Fortescue Dave Forrest Airport,-22.2908,119.437
IataKFG,au,Australia,kfg,Northern Territory,Kalkarindji,Kalkgurung Airport,-17.4319,130.808
IataKGC,au,Australia,kgc,South Australia,Kangaroo Island,Kingscote Airport,-35.7139,137.521
IataKGI,au,Australia,kgi,Western Australia,Kalgoorlie,Kalgoorlie-Boulder Airport,-30.7894,121.462
IataKGR,au,Australia,kgr,Northern Territory,Ghan,Kulgera Airport,-25.8428,133.292
IataKGY,au,Australia,kgy,Queensland,,Kingaroy Airport,-26.5808,151.841
IataKKP,au,Australia,kkp,Queensland,Koolburra,Koolburra Airport,-15.3189,143.955
IataKML,au,Australia,kml,Queensland,,Kamileroi Airport,-19.375,140.057
IataKNI,au,Australia,kni,Western Australia,,Katanning Airport,-33.7167,117.633
IataKNS,au,Australia,kns,Tasmania,King Island,King Island Airport,-39.8775,143.878
IataKNX,au,Australia,knx,Western Australia,Kununurra,East Kimberley Regional Airport,-15.7781,128.708
IataKOH,au,Australia,koh,Queensland,Maramie,Koolatah Airport,-15.8886,142.439
IataKPP,au,Australia,kpp,Queensland,Kalpower,Kalpowar Airport,-14.89,144.22
IataKPS,au,Australia,kps,New South Wales,,Kempsey Airport,-31.0744,152.77
IataKQR,au,Australia,kqr,Western Australia,Karara,Karara Airport,-29.2167,116.687
IataKRA,au,Australia,kra,Victoria,,Kerang Airport,-35.7514,143.939
IataKRB,au,Australia,krb,Queensland,,Karumba Airport,-17.4567,140.83
IataKRD,au,Australia,krd,Northern Territory,Kurundi Station,Kurundi Airport,-20.51,134.671
IataKSV,au,Australia,ksv,Queensland,,Springvale Airport,-23.55,140.7
IataKTA,au,Australia,kta,Western Australia,Karratha,Karratha Airport,-20.7122,116.773
IataKTR,au,Australia,ktr,Northern Territory,,RAAF Base Tindal,-14.5211,132.378
IataKUG,au,Australia,kug,Queensland,Kubin Island,Kubin Airport,-10.225,142.218
IataKWM,au,Australia,kwm,Queensland,Kowanyama,Kowanyama Airport,-15.4856,141.751
IataKYF,au,Australia,kyf,Western Australia,,Yeelirrie Airport,-27.2771,120.096
IataKYI,au,Australia,kyi,South Australia,Yalata Mission,Yalata Airport,-31.4706,131.825
IataLBH,au,Australia,lbh,New South Wales,Sydney,Palm Beach Water Airport,-33.5871,151.323
IataLCN,au,Australia,lcn,South Australia,,Balcanoona Airport,-30.535,139.337
IataLDC,au,Australia,ldc,Queensland,Lindeman Island,Lindeman Island Airport,-20.4536,149.04
IataLDH,au,Australia,ldh,New South Wales,Lord Howe Island,Lord Howe Island Airport,-31.5383,159.077
IataLDW,au,Australia,ldw,Western Australia,Lansdowne Station,Lansdowne Airport,-17.6128,126.743
IataLEA,au,Australia,lea,Western Australia,Exmouth,RAAF Learmonth (Learmonth Airport),-22.2356,114.089
IataLEL,au,Australia,lel,Northern Territory,,Lake Evella Airport,-12.4989,135.806
IataLER,au,Australia,ler,Western Australia,Léré,Leinster Airport,-27.8433,120.703
IataLFP,au,Australia,lfp,Queensland,Lakefield,Lakefield Airport,-14.9207,144.203
IataLGE,au,Australia,lge,Western Australia,Lake Gregory,Lake Gregory Airport,-20.1089,127.619
IataLGH,au,Australia,lgh,South Australia,,Leigh Creek Airport,-30.5983,138.426
IataLHG,au,Australia,lhg,New South Wales,,Lightning Ridge Airport,-29.4567,147.984
IataLIB,au,Australia,lib,Northern Territory,Limbunya,Limbunya Airport,-17.2356,129.882
IataLKD,au,Australia,lkd,Queensland,Lakeland Downs,Lakeland Downs Airport,-15.8333,144.85
IataLLG,au,Australia,llg,Queensland,Chillagoe,Chillagoe Airport,-17.1428,144.529
IataLLL,au,Australia,lll,Western Australia,Lissadell Station,Lissadell Airport,-16.661,128.594
IataLLP,au,Australia,llp,Queensland,,Linda Downs Airport,-23.0167,138.7
IataLNH,au,Australia,lnh,Northern Territory,Alpurrurulam,Lake Nash Airport,-20.9807,137.918
IataLNO,au,Australia,lno,Western Australia,Leonora,Leonora Airport,-28.8781,121.315
IataLOA,au,Australia,loa,Queensland,,Lorraine Airport,-18.9933,139.907
IataLOC,au,Australia,loc,South Australia,Lock,Lock Airport,-33.5442,135.693
IataLRE,au,Australia,lre,Queensland,Longreach Region,Longreach Airport,-23.4342,144.28
IataLST,au,Australia,lst,Tasmania,Launceston,Launceston Airport,-41.5453,147.214
IataLSY,au,Australia,lsy,New South Wales,Lismore,Lismore Airport,-28.8303,153.26
IataLTB,au,Australia,ltb,Tasmania,,Latrobe Airport,-41.2352,146.396
IataLTP,au,Australia,ltp,Queensland,Lyndhurst,Lyndhurst Airport,-19.1958,144.371
IataLTV,au,Australia,ltv,Queensland,Lotus Vale,Lotus Vale Station Airport,-17.0483,141.376
IataLUT,au,Australia,lut,Queensland,Laura Station,New Laura Airport,-15.1833,144.367
IataLUU,au,Australia,luu,Queensland,Laura,Laura Airport,-15.55,144.45
IataLVO,au,Australia,lvo,Western Australia,Laverton,Laverton Airport,-28.6136,122.424
IataLWH,au,Australia,lwh,Queensland,,Lawn Hill Airport,-18.5683,138.635
IataLYT,au,Australia,lyt,Queensland,Lady Elliot Island,Lady Elliot Island Airport,-24.1129,152.716
IataLZR,au,Australia,lzr,Queensland,,Lizard Island Airport,-14.6733,145.455
IataMBB,au,Australia,mbb,Western Australia,,Marble Bar Airport,-21.1633,119.833
IataMBF,au,Australia,mbf,Victoria,Porepunkah,Porepunkah Airfield,-36.7187,146.89
IataMBH,au,Australia,mbh,Queensland,Maryborough,Maryborough Airport,-25.5133,152.715
IataMBN,au,Australia,mbn,Western Australia,Wunaamin Miliwundi Ranges,Mount Barnett Airport,-16.6573,125.961
IataMBW,au,Australia,mbw,Victoria,Melbourne,Moorabbin Airport,-37.9758,145.102
IataMCV,au,Australia,mcv,Northern Territory,McArthur River Mine,McArthur River Mine Airport,-16.4425,136.084
IataMCY,au,Australia,mcy,Queensland,Sunshine Coast,Sunshine Coast Airport,-26.6033,153.091
IataMEB,au,Australia,meb,Victoria,Melbourne,Essendon Airport,-37.7281,144.902
IataMEL,au,Australia,mel,Victoria,Melbourne,Melbourne Airport,-37.6733,144.843
IataMET,au,Australia,met,Queensland,Moreton,Moreton Airport,-12.4442,142.638
IataMFL,au,Australia,mfl,Queensland,Wando Vale,Mount Full Stop Airport,-19.67,144.885
IataMFP,au,Australia,mfp,Northern Territory,,Manners Creek Airport,-22.1,137.983
IataMGB,au,Australia,mgb,South Australia,Limestone Coast,Mount Gambier Airport,-37.7456,140.785
IataMGT,au,Australia,mgt,Northern Territory,Milingimbi,Milingimbi Airport,-12.0944,134.894
IataMGV,au,Australia,mgv,Western Australia,,Margaret River Station Airport,-18.6217,126.883
IataMHO,au,Australia,mho,Western Australia,Wunaamin Miliwundi Ranges,Mount House Airport,-17.055,125.71
IataMHU,au,Australia,mhu,Victoria,Mount Hotham,Mount Hotham Airport,-37.0475,147.334
IataMIH,au,Australia,mih,Western Australia,Mitchell Plateau,Mitchell Plateau Airport,-14.7914,125.824
IataMIM,au,Australia,mim,New South Wales,Merimbula,Merimbula Airport,-36.9086,149.901
IataMIN,au,Australia,min,South Australia,,Minnipa Airport,-32.8433,135.145
IataMIY,au,Australia,miy,Northern Territory,,Mittiebah Airport,-18.8093,137.081
IataMIZ,au,Australia,miz,Northern Territory,Mainoru,Mainoru Airport,-14.0533,134.094
IataMJK,au,Australia,mjk,Western Australia,Denham,Shark Bay Airport,-25.8939,113.577
IataMJP,au,Australia,mjp,Western Australia,,Manjimup Airport,-34.2653,116.14
IataMKR,au,Australia,mkr,Western Australia,,Meekatharra Airport,-26.6117,118.548
IataMKV,au,Australia,mkv,Northern Territory,,Mount Cavenagh Airport,-25.9667,133.2
IataMKY,au,Australia,mky,Queensland,Mackay,Mackay Airport,-21.1717,149.18
IataMLR,au,Australia,mlr,South Australia,,Millicent Airport,-37.5836,140.366
IataMLV,au,Australia,mlv,Queensland,Merluna,Merluna Airport,-13.0649,142.454
IataMMG,au,Australia,mmg,Western Australia,,Mount Magnet Airport,-28.1161,117.842
IataMMM,au,Australia,mmm,Queensland,,Middlemount Airport,-22.8025,148.705
IataMNE,au,Australia,mne,South Australia,Mungeranie,Mungeranie Airport,-28.0092,138.657
IataMNG,au,Australia,mng,Northern Territory,Maningrida,Maningrida Airport,-12.0561,134.234
IataMNQ,au,Australia,mnq,Queensland,,Monto Airport,-24.8858,151.1
IataMNV,au,Australia,mnv,Northern Territory,,Mount Valley Airport,-14.1167,133.833
IataMNW,au,Australia,mnw,Northern Territory,,MacDonald Downs Airport,-22.444,135.199
IataMOO,au,Australia,moo,South Australia,Moomba,Moomba Airport,-28.0994,140.197
IataMOV,au,Australia,mov,Queensland,Moranbah,Moranbah Airport,-22.0578,148.077
IataMQA,au,Australia,mqa,Western Australia,Eighty Mile Beach,Mandora Station Airport,-19.7383,120.838
IataMQE,au,Australia,mqe,Northern Territory,Marqua,Marqua Airport,-22.8058,137.251
IataMQL,au,Australia,mql,Victoria,Mildura,Mildura Airport,-34.2292,142.086
IataMQZ,au,Australia,mqz,Western Australia,,Margaret River Airport,-33.9306,115.1
IataMRG,au,Australia,mrg,Queensland,Mareeba,Mareeba Airfield,-17.0692,145.419
IataMRL,au,Australia,mrl,Queensland,,Miners Lake Airport,46.3834,-82.6331
IataMRP,au,Australia,mrp,South Australia,Marla,Marla Airport,-27.3333,133.627
IataMRT,au,Australia,mrt,Northern Territory,Moroak,Moroak Airport,-14.8181,133.701
IataMRZ,au,Australia,mrz,New South Wales,Moree,Moree Airport,-29.4989,149.845
IataMSF,au,Australia,msf,Northern Territory,,Mount Swan Airport,-22.6247,135.035
IataMTD,au,Australia,mtd,Northern Territory,,Mount Sandford Station Airport,-16.9783,130.555
IataMTL,au,Australia,mtl,New South Wales,,Maitland Airport,-32.7013,151.493
IataMTQ,au,Australia,mtq,Queensland,,Mitchell Airport,-26.4833,147.937
IataMUP,au,Australia,mup,Northern Territory,,Mulga Park Airport,-25.86,131.65
IataMUQ,au,Australia,muq,Western Australia,Muccan Station,Muccan Station Airport,-20.6589,120.067
IataMVH,au,Australia,mvh,New South Wales,,Macksville Airport,-30.7,152.917
IataMVK,au,Australia,mvk,South Australia,Mulka,Mulka Airport,-28.3478,138.65
IataMVU,au,Australia,mvu,Queensland,Musgrave,Musgrave Airport,-14.7757,143.505
IataMWB,au,Australia,mwb,Western Australia,,Morawa Airport,-29.2017,116.022
IataMWT,au,Australia,mwt,South Australia,Moolawatana Station,Moolawatana Airport,-29.9069,139.765
IataMWY,au,Australia,mwy,Queensland,Miranda Downs,Miranda Downs Airport,-17.3289,141.886
IataMXD,au,Australia,mxd,Queensland,Marion Downs,Marion Downs Airport,-23.3637,139.65
IataMXU,au,Australia,mxu,Western Australia,,Mullewa Airport,-28.475,115.517
IataMYA,au,Australia,mya,New South Wales,Moruya,Moruya Airport,-35.8978,150.144
IataMYI,au,Australia,myi,Queensland,Murray Island,Murray Island Airport,-9.91667,144.055
IataMYO,au,Australia,myo,Western Australia,,Myroodah Airport,-18.1247,124.272
IataNAA,au,Australia,naa,New South Wales,Narrabri,Narrabri Airport,-30.3192,149.827
IataNAC,au,Australia,nac,South Australia,,Naracoorte Airport,-36.9853,140.725
IataNBH,au,Australia,nbh,New South Wales,Nambucca Heads,Nambucca Heads Airport,-30.65,153
IataNDS,au,Australia,nds,Western Australia,Sandstone,Sandstone Airport,-27.98,119.297
IataNGA,au,Australia,nga,New South Wales,Young,Young Airport,-34.2556,148.248
IataNIF,au,Australia,nif,Western Australia,,Nifty Airport,-21.6717,121.587
IataNKB,au,Australia,nkb,Western Australia,,Noonkanbah Airport,-18.4947,124.852
IataNLF,au,Australia,nlf,Queensland,Darnley Island,Darnley Island Airport,-9.58333,143.767
IataNLL,au,Australia,nll,Western Australia,,Nullagine Airport,-21.9133,120.198
IataNLS,au,Australia,nls,Western Australia,,Nicholson Airport,-18.05,128.9
IataNMP,au,Australia,nmp,Queensland,Basalt,New Moon Airport,-19.2,145.773
IataNMR,au,Australia,nmr,Queensland,,Nappa Merrie Airport,-27.5583,141.133
IataNOA,au,Australia,noa,New South Wales,Nowra Hill,NAS Nowra,-34.9489,150.537
IataNPP,au,Australia,npp,Northern Territory,Napperby,Napperby Airport,-22.5312,133.763
IataNRA,au,Australia,nra,New South Wales,Narrandera,Narrandera Airport,-34.7022,146.512
IataNRG,au,Australia,nrg,Western Australia,Narrogin,Narrogin Airport,-32.93,117.08
IataNRY,au,Australia,nry,Northern Territory,Newry,Newry Airport,-16.0442,129.264
IataNSM,au,Australia,nsm,Western Australia,Norseman,Norseman Airport,-32.21,121.755
IataNSO,au,Australia,nso,New South Wales,,Scone Airport,-32.0372,150.832
IataNSV,au,Australia,nsv,Queensland,,Noosa Airport,-26.4233,153.063
IataNTL,au,Australia,ntl,New South Wales,Newcastle,Newcastle Airport / RAAF Base Williamtown,-32.795,151.834
IataNTN,au,Australia,ntn,Queensland,Normanton,Normanton Airport,-17.6841,141.07
IataNUB,au,Australia,nub,Northern Territory,,Numbulwar Airport,-14.2717,135.717
IataNUR,au,Australia,nur,South Australia,,Nullabor Motel Airport,-31.4417,130.902
IataNYN,au,Australia,nyn,New South Wales,,Nyngan Airport,-31.5511,147.203
IataOAG,au,Australia,oag,New South Wales,Orange,Orange Airport,-33.3817,149.133
IataOBA,au,Australia,oba,Queensland,,Oban Airport,56.4657,-5.3977
IataOCM,au,Australia,ocm,Western Australia,,Boolgeeda Airport,-22.54,117.275
IataODD,au,Australia,odd,South Australia,,Oodnadatta Airport,-27.5617,135.447
IataODL,au,Australia,odl,South Australia,Cordillo Downs,Cordillo Downs Airport,-26.7453,140.638
IataODR,au,Australia,odr,Western Australia,Ord River,Ord River Airport,-17.3408,128.912
IataOKB,au,Australia,okb,Queensland,Orchid Beach,Orchid Beach Airport,-24.9594,153.315
IataOKR,au,Australia,okr,Queensland,Yorke Island,Yorke Island Airport,-9.7528,143.406
IataOKY,au,Australia,oky,Queensland,,Oakey Army Aviation Centre,-27.4114,151.735
IataOLP,au,Australia,olp,South Australia,Olympic Dam mine,Olympic Dam Airport,-30.485,136.877
IataONG,au,Australia,ong,Queensland,Mornington Island,Mornington Island Airport,-16.6625,139.178
IataONR,au,Australia,onr,Queensland,,Monkira Airport,-24.8167,140.533
IataONS,au,Australia,ons,Western Australia,,Onslow Airport,-21.6683,115.113
IataOOL,au,Australia,ool,Queensland,Gold Coast,Gold Coast Airport (Coolangatta Airport),-28.1644,153.505
IataOOM,au,Australia,oom,New South Wales,Cooma,Cooma-Snowy Mountains Airport,-36.3006,148.974
IataOOR,au,Australia,oor,Queensland,,Mooraberree Airport,-25.25,140.983
IataOPI,au,Australia,opi,Queensland,,Oenpelli Airport,-12.325,133.006
IataORR,au,Australia,orr,South Australia,,Yorketown Airport,-35,137.617
IataORS,au,Australia,ors,Queensland,,Orpheus Island Resort Waterport,-18.634,146.5
IataOSO,au,Australia,oso,Queensland,Osborne Mine,Osborne Mine Airport,-22.0817,140.555
IataOXO,au,Australia,oxo,Queensland,Orientos,Orientos Airport,-28.0598,141.536
IataOXY,au,Australia,oxy,Queensland,,Morney Airport,-25.3583,141.433
IataOYN,au,Australia,oyn,Victoria,Ouyen,Ouyen Airport,-35.089,142.354
IataPBO,au,Australia,pbo,Western Australia,Paraburdoo,Paraburdoo Airport,-23.1711,117.745
IataPDE,au,Australia,pde,South Australia,,Pandie Pandie Airport,-26.1167,139.4
IataPDN,au,Australia,pdn,South Australia,Kangaroo Island,Parndana Airport,-35.807,137.264
IataPEA,au,Australia,pea,South Australia,Ironstone,Penneshaw Airport,-35.7558,137.963
IataPEP,au,Australia,pep,Northern Territory,Peppimenarti,Peppimenarti Airport,-14.1442,130.091
IataPER,au,Australia,per,Western Australia,Perth,Perth Airport,-31.9403,115.967
IataPEY,au,Australia,pey,South Australia,Penong,Penong Airport,-31.9167,133
IataPHE,au,Australia,phe,Western Australia,Port Hedland,Port Hedland International Airport,-20.3778,118.626
IataPHQ,au,Australia,phq,Queensland,Phosphate Hill,The Monument Airport,-21.8111,139.924
IataPKE,au,Australia,pke,New South Wales,Parkes,Parkes Airport,-33.1314,148.239
IataPKT,au,Australia,pkt,Northern Territory,Wadeye,Port Keats Airfield,-14.25,129.529
IataPLO,au,Australia,plo,South Australia,Port Lincoln,Port Lincoln Airport,-34.6053,135.88
IataPMK,au,Australia,pmk,Queensland,Aboriginal Shire of Palm Island,Palm Island Airport,-18.7553,146.581
IataPPI,au,Australia,ppi,South Australia,,Port Pirie Airport,-33.2389,137.995
IataPPP,au,Australia,ppp,Queensland,Proserpine,Whitsunday Coast Airport,-20.495,148.552
IataPQQ,au,Australia,pqq,New South Wales,Port Macquarie,Port Macquarie Airport,-31.4358,152.863
IataPRD,au,Australia,prd,Western Australia,Pardoo,Pardoo Airport,-20.1175,119.59
IataPTJ,au,Australia,ptj,Victoria,Victoria,Portland Airport,-38.3181,141.471
IataPUG,au,Australia,pug,South Australia,Port Augusta,Port Augusta Airport,-32.5069,137.717
IataPXH,au,Australia,pxh,South Australia,Mount Eba,Prominent Hill Airport,-29.716,135.524
IataQRR,au,Australia,qrr,New South Wales,Warren,,-31.7333,147.8030
IataRAM,au,Australia,ram,Northern Territory,,Ramingining Airport,-12.3564,134.898
IataRBC,au,Australia,rbc,Victoria,Robinvale,Robinvale Airport,-34.65,142.783
IataRBS,au,Australia,rbs,Victoria,Orbost,Orbost Airport,-37.79,148.61
IataRBU,au,Australia,rbu,Western Australia,Roebourne,Roebourne Airport,-20.7617,117.157
IataRCM,au,Australia,rcm,Queensland,Richmond,Richmond Airport,-20.7019,143.115
IataRCN,au,Australia,rcn,South Australia,,American River Airport,-35.7574,137.776
IataRDA,au,Australia,rda,Northern Territory,Rockhampton Downs,Rockhampton Downs Airport,-18.9533,135.201
IataRHL,au,Australia,rhl,Western Australia,,Roy Hill Station Airport,-22.6258,119.959
IataRKY,au,Australia,rky,Queensland,Rokeby,Rokeby Airport,-13.6434,142.641
IataRLP,au,Australia,rlp,Queensland,Rosella Plains,Rosella Plains Airport,-18.4253,144.459
IataRMA,au,Australia,rma,Queensland,Roma,Roma Airport,-26.545,148.775
IataRMK,au,Australia,rmk,South Australia,Renmark,Renmark Airport,-34.1964,140.674
IataROH,au,Australia,roh,Queensland,,Robinhood Airport,-18.845,143.71
IataROK,au,Australia,rok,Queensland,Rockhampton,Rockhampton Airport,-23.3819,150.475
IataRPB,au,Australia,rpb,Northern Territory,Belleville,Roper Bar Airport,-14.7348,134.525
IataRPM,au,Australia,rpm,Northern Territory,Roper River,Ngukurr Airport,-14.7228,134.747
IataRPV,au,Australia,rpv,Northern Territory,Roper Valley,Roper Valley Airport,-14.9215,134.05
IataRRE,au,Australia,rre,South Australia,,Marree Airport,-29.6633,138.065
IataRRV,au,Australia,rrv,Northern Territory,,Robinson River Airport (Northern Territory),-16.7183,136.945
IataRSB,au,Australia,rsb,Queensland,,Roseberth Airport,-25.8333,139.65
IataRSE,au,Australia,rse,New South Wales,Sydney,Rose Bay Water Airport,-33.869,151.262
IataRTP,au,Australia,rtp,Queensland,Yagoonya,Rutland Plains Airport,-15.6433,141.843
IataRTS,au,Australia,rts,Western Australia,,Rottnest Island Airport,-32.0067,115.54
IataRTY,au,Australia,rty,South Australia,,Merty Merty Airport,-28.5833,140.317
IataRVT,au,Australia,rvt,Western Australia,,Ravensthorpe Airport,-33.7972,120.208
IataSBR,au,Australia,sbr,Queensland,Saibai Island,Saibai Island Airport,-9.37833,142.625
IataSCG,au,Australia,scg,Queensland,,Spring Creek Airport,-18.6333,144.567
IataSGO,au,Australia,sgo,Queensland,,St George Airport,-28.0497,148.595
IataSGP,au,Australia,sgp,Western Australia,Shay Gap,Shay Gap Airport,-20.4247,120.141
IataSHQ,au,Australia,shq,Queensland,Southport,Southport Airport,-27.9221,153.372
IataSHT,au,Australia,sht,Victoria,,Shepparton Airport,-36.4289,145.393
IataSHU,au,Australia,shu,Northern Territory,,Smith Point Airport,-11.15,132.15
IataSIO,au,Australia,sio,Tasmania,,Smithton Airport,-40.835,145.084
IataSIX,au,Australia,six,New South Wales,Singleton,Singleton Airport,-32.6008,151.193
IataSLJ,au,Australia,slj,Western Australia,Karijini National Park,Solomon Airport,-22.2554,117.763
IataSNB,au,Australia,snb,Northern Territory,Melville Island,Snake Bay Airport,-11.4228,130.654
IataSNH,au,Australia,snh,Queensland,Stanthorpe,Stanthorpe Airport,-28.6203,151.991
IataSQC,au,Australia,sqc,Western Australia,,Southern Cross Airport,-31.24,119.36
IataSRM,au,Australia,srm,Queensland,Sandringham Station,Sandringham Station Airport,-24.0568,139.082
IataSRN,au,Australia,srn,Tasmania,West Coast,Strahan Airport,-42.155,145.292
IataSRR,au,Australia,srr,Queensland,North Stradbroke Island,Dunwich Airport,-27.5167,153.428
IataSSK,au,Australia,ssk,Western Australia,Sturt Creek,Sturt Creek Airport,-19.1664,128.174
IataSSP,au,Australia,ssp,Queensland,Silver Plains,Silver Plains Airport,-13.9754,143.554
IataSTF,au,Australia,stf,Queensland,Stephens Island,Stephens Island Airport,-9.51,143.55
IataSTH,au,Australia,sth,Queensland,Strathmore,Strathmore Airport,-17.85,142.567
IataSVM,au,Australia,svm,Queensland,,St Pauls Mission Airport,-10.3667,142.117
IataSWB,au,Australia,swb,Western Australia,Shaw River,Shaw River Airport,-21.5103,119.362
IataSWC,au,Australia,swc,Victoria,,Stawell Airport,-37.0717,142.741
IataSWH,au,Australia,swh,Victoria,,Swan Hill Airport,-35.3758,143.533
IataSXE,au,Australia,sxe,Victoria,Sale,West Sale Airport,-38.0908,146.965
IataSYD,au,Australia,syd,New South Wales,Sydney,Sydney Airport (Kingsford Smith Airport),-33.9461,151.177
IataSYU,au,Australia,syu,Queensland,Sue Islet,Warraber Island Airport,-10.2083,142.825
IataTAN,au,Australia,tan,Queensland,Taunton,Tangalooma Airport,-27.13,153.363
IataTAQ,au,Australia,taq,South Australia,Tarcoola,Tarcoola Airport,-30.7033,134.584
IataTBK,au,Australia,tbk,Northern Territory,,Timber Creek Airport,-15.62,130.445
IataTBL,au,Australia,tbl,Western Australia,,Tableland Homestead Airport,-17.2833,126.9
IataTCA,au,Australia,tca,Northern Territory,Tennant Creek,Tennant Creek Airport,-19.6344,134.183
IataTCW,au,Australia,tcw,New South Wales,,Tocumwal Airport,-35.8117,145.608
IataTDN,au,Australia,tdn,Western Australia,Drysdale River,Theda Station Airport,-14.7881,126.496
IataTDR,au,Australia,tdr,Queensland,,Theodore Airport,-24.9933,150.093
IataTEF,au,Australia,tef,Western Australia,,Telfer Airport,-21.715,122.229
IataTEM,au,Australia,tem,New South Wales,Temora,Temora Airport,-34.4214,147.512
IataTGN,au,Australia,tgn,Victoria,Morwell,Latrobe Regional Airport,-38.2072,146.47
IataTHG,au,Australia,thg,Queensland,Biloela,Thangool Airport,-24.4939,150.576
IataTKY,au,Australia,tky,Western Australia,Turkey Creek,Turkey Creek Airport,-17.0408,128.206
IataTMW,au,Australia,tmw,New South Wales,Tamworth,Tamworth Regional Airport,-31.0839,150.847
IataTPR,au,Australia,tpr,Western Australia,Tom Price,Tom Price Airport,-22.746,117.869
IataTQP,au,Australia,tqp,Queensland,Trepell,Trepell Airport,-21.835,140.888
IataTRO,au,Australia,tro,New South Wales,Taree,Taree Airport,-31.8886,152.514
IataTSV,au,Australia,tsv,Queensland,Townsville,Townsville Airport,-19.2525,146.765
IataTTX,au,Australia,ttx,Western Australia,Anjo Peninsula,Truscott-Mungalalu Airport,-14.0897,126.381
IataTUM,au,Australia,tum,New South Wales,Tumut,Tumut Airport,-35.2628,148.241
IataTWB,au,Australia,twb,Queensland,Toowoomba,Toowoomba City Aerodrome,-27.5428,151.916
IataTWN,au,Australia,twn,Queensland,,Tewantin Airport,-26.388,153.028
IataTWP,au,Australia,twp,Queensland,Torwood,Torwood Airport,-17.3633,143.75
IataTXR,au,Australia,txr,Queensland,Tanbar Station,Tanbar Airport,-25.8478,141.928
IataTYB,au,Australia,tyb,New South Wales,,Tibooburra Airport,-29.4511,142.058
IataTYG,au,Australia,tyg,Queensland,,Thylungra Airport,-26.0833,143.467
IataTYP,au,Australia,typ,Northern Territory,Tobermorey,Tobermorey Airport,-22.2558,137.953
IataUBB,au,Australia,ubb,Queensland,Mabuiag Island,Mabuiag Island Airport,-9.95,142.183
IataUBU,au,Australia,ubu,Western Australia,Kalumburu,Kalumburu Airport,-14.2883,126.632
IataUDA,au,Australia,uda,Queensland,Undara,Undara Airport,-18.2,144.6
IataUEE,au,Australia,uee,Tasmania,,Queenstown Airport,-42.075,145.532
IataUIR,au,Australia,uir,New South Wales,,Quirindi Airport,-31.4906,150.514
IataULP,au,Australia,ulp,Queensland,,Quilpie Airport,-26.6122,144.253
IataUMR,au,Australia,umr,South Australia,Woomera,RAAF Woomera Airfield,-31.1442,136.817
IataUSL,au,Australia,usl,Western Australia,Useless Loop,Useless Loop Airport,-26.1667,113.4
IataUTB,au,Australia,utb,Queensland,,Muttaburra Airport,-22.5833,144.533
IataUTD,au,Australia,utd,Northern Territory,Nutwood Downs,Nutwood Downs Airport,-15.8074,134.146
IataVCD,au,Australia,vcd,Northern Territory,Victoria River,Victoria River Downs Airport,-16.4021,131.005
IataVNR,au,Australia,vnr,Queensland,,Vanrook Airport,-16.9633,141.95
IataWAN,au,Australia,wan,Queensland,,Waverney Airport,-25.3563,141.925
IataWAU,au,Australia,wau,New South Wales,Wauchope,Wauchope Airport,-20.6406,134.215
IataWAV,au,Australia,wav,Northern Territory,,Wave Hill Airport,-17.3933,131.118
IataWAZ,au,Australia,waz,Queensland,,Warwick Airport,-28.1494,151.943
IataWDI,au,Australia,wdi,Queensland,,Wondai Airport,-26.2833,151.858
IataWEI,au,Australia,wei,Queensland,Weipa,Weipa Airport,-12.6786,141.925
IataWEW,au,Australia,wew,New South Wales,,Wee Waa Airport,-30.2583,149.408
IataWGA,au,Australia,wga,New South Wales,Forest Hill,Wagga Wagga Airport,-35.1653,147.466
IataWGE,au,Australia,wge,New South Wales,,Walgett Airport,-30.0328,148.126
IataWGT,au,Australia,wgt,Victoria,Laceby,Wangaratta Airport,-36.4158,146.307
IataWHL,au,Australia,whl,Victoria,Welshpool,Welshpool Airport,-38.6824,146.445
IataWIN,au,Australia,win,Queensland,,Winton Airport,-22.3636,143.086
IataWIO,au,Australia,wio,New South Wales,,Wilcannia Airport,-31.5264,143.375
IataWIT,au,Australia,wit,Western Australia,,Wittenoom Airport,-22.2183,118.348
IataWKB,au,Australia,wkb,Victoria,,Warracknabeal Airport,-36.3211,142.419
IataWLA,au,Australia,wla,Western Australia,Eighty Mile Beach,Wallal Airport,-19.7736,120.649
IataWLC,au,Australia,wlc,New South Wales,,Walcha Airport,-31,151.567
IataWLE,au,Australia,wle,Queensland,,Miles Airport,-26.8083,150.175
IataWLL,au,Australia,wll,Northern Territory,,Wollogorang Airport,-17.2199,137.935
IataWLO,au,Australia,wlo,Northern Territory,,Waterloo Airport,-16.63,129.32
IataWLP,au,Australia,wlp,Western Australia,,West Angelas Airport,-23.1356,118.707
IataWMB,au,Australia,wmb,Victoria,,Warrnambool Airport,-38.2953,142.447
IataWME,au,Australia,wme,Western Australia,,Mount Keith Airport,-27.2864,120.555
IataWND,au,Australia,wnd,Western Australia,Laverton,Windarra Airport,-28.475,122.242
IataWNR,au,Australia,wnr,Queensland,Windorah,Windorah Airport,-25.4131,142.667
IataWOL,au,Australia,wol,New South Wales,Albion Park Rail,Illawarra Regional Airport,-34.5611,150.789
IataWON,au,Australia,won,Queensland,Wondoola,Wondoola Airport,-18.575,140.892
IataWPK,au,Australia,wpk,Queensland,Wrotham Park,Wrotham Park Airport,-16.6583,144.002
IataWRN,au,Australia,wrn,Western Australia,Windarling Mine,Windarling Airport,-30.0317,119.39
IataWRW,au,Australia,wrw,Western Australia,,Warrawagine Airport,-20.8442,120.702
IataWSY,au,Australia,wsy,Queensland,Shute Harbour,Whitsunday Airport,-20.2761,148.755
IataWTB,au,Australia,wtb,Queensland,Toowoomba,Toowoomba Wellcamp Airport,-27.5583,151.793
IataWUD,au,Australia,wud,South Australia,,Wudinna Airport,-33.0433,135.447
IataWUI,au,Australia,wui,Western Australia,Murrin Murrin,Murrin Murrin Airport,-28.7053,121.891
IataWUN,au,Australia,wun,Western Australia,,Wiluna Airport,-26.6292,120.221
IataWWI,au,Australia,wwi,Western Australia,Woodie Woodie,Woodie Woodie Airport,-21.6628,121.234
IataWWY,au,Australia,wwy,New South Wales,West Wyalong,West Wyalong Airport,-33.9372,147.191
IataWYA,au,Australia,wya,South Australia,Whyalla,Whyalla Airport,-33.0589,137.514
IataWYN,au,Australia,wyn,Western Australia,,Wyndham Airport,-15.5114,128.153
IataXCO,au,Australia,xco,Victoria,Colac Otway Shire,Colac Airport,-38.2867,143.68
IataXMC,au,Australia,xmc,Victoria,,Mallacoota Airport,-37.5983,149.72
IataXML,au,Australia,xml,South Australia,,Minlaton Airport,-34.75,137.533
IataXMY,au,Australia,xmy,Queensland,Yam Island,Yam Island Airport,-9.90111,142.776
IataXRH,au,Australia,xrh,New South Wales,Richmond,RAAF Base Richmond,-33.6006,150.781
IataXTG,au,Australia,xtg,Queensland,Thargomindah,Thargomindah Airport,-27.9864,143.811
IataXTO,au,Australia,xto,Queensland,,Taroom Airport,-25.8017,149.9
IataXTR,au,Australia,xtr,Queensland,,Tara Airport,-27.1567,150.477
IataYLG,au,Australia,ylg,Western Australia,Yalgoo,Yalgoo Airport,-28.3553,116.684
IataYNN,au,Australia,ynn,Western Australia,,Yandicoogina Airport,59.4875,-97.7803
IataYUE,au,Australia,yue,Northern Territory,,Yuendumu Airport,-22.2542,131.782
IataZBL,au,Australia,zbl,Queensland,Biloela,Biloela Airport,-24.4,150.51
IataZBO,au,Australia,zbo,Queensland,Bowen,Bowen Airport,-20.0183,148.215
IataZGL,au,Australia,zgl,Queensland,,South Galway Airport,-25.6833,142.108
IataZNE,au,Australia,zne,Western Australia,Newman,Newman Airport,-23.4178,119.803
IataZVG,au,Australia,zvg,Western Australia,Springvale,Springvale Airport (Western Australia),-17.7869,127.67
IataAUA,aw,Aruba,aua,Aruba,Oranjestad,Queen Beatrix International Airport,12.5014,-70.0152
IataFZL,az,Azerbaijan,fzl,Fuzuli,Fuzuli,,39.5946,47.1961
IataGBB,az,Azerbaijan,gbb,Qabala,Gabala,Qabala International Airport,40.8267,47.7125
IataGNJ,az,Azerbaijan,gnj,Ganca,Ganja,,40.7387,46.3204
IataGYD,az,Azerbaijan,gyd,Baki,Baku,Heydar Aliyev International Airport,40.4675,50.0467
IataKVD,az,Azerbaijan,kvd,Ganca,,Ganja International Airport,40.7377,46.3176
IataLLK,az,Azerbaijan,llk,Lankaran,Lankaran,Lankaran International Airport,38.7464,48.818
IataNAJ,az,Azerbaijan,naj,Naxcivan,Nakhchivan,Nakhchivan International Airport,39.1888,45.4584
IataYLV,az,Azerbaijan,ylv,Yevlax,Yevlakh,Yevlakh Airport,40.6319,47.1419
IataZTU,az,Azerbaijan,ztu,Zaqatala,Zaqatala,Zaqatala International Airport,41.5622,46.6672
IataBNX,ba,Bosnia and Herzegovina,bnx,Republika Srpska,Banja Luka,Banja Luka International Airport,44.9414,17.2975
IataOMO,ba,Bosnia and Herzegovina,omo,Federacija Bosne i Hercegovine,Mostar,Mostar Airport,43.2829,17.8459
IataSJJ,ba,Bosnia and Herzegovina,sjj,Federacija Bosne i Hercegovine,Sarajevo,Sarajevo International Airport,43.8246,18.3315
IataTZL,ba,Bosnia and Herzegovina,tzl,Federacija Bosne i Hercegovine,Dubrave Gornje,Tuzla International Airport,44.4587,18.7248
IataBGI,bb,Barbados,bgi,Christ Church,Barbados,Grantley Adams International Airport,13.0746,-59.4925
IataBZL,bd,Bangladesh,bzl,Barisal,Barishal,Barisal Airport,22.801,90.3012
IataCGP,bd,Bangladesh,cgp,Chittagong,Chittagong,Shah Amanat International Airport,22.2496,91.8133
IataCLA,bd,Bangladesh,cla,Chittagong,Cumilla,Comilla Airport,23.4372,91.1897
IataCXB,bd,Bangladesh,cxb,Chittagong,Cox's Bazar,Cox's Bazar Airport,21.4522,91.9639
IataDAC,bd,Bangladesh,dac,Dhaka,Dhaka,Hazrat Shahjalal International Airport,23.8433,90.3978
IataIRD,bd,Bangladesh,ird,Rajshahi,Ishurdi,Ishwardi Airport,24.1525,89.0494
IataJSR,bd,Bangladesh,jsr,Khulna,Jashore District,Jessore Airport,23.1838,89.1608
IataRJH,bd,Bangladesh,rjh,Rajshahi,Rajshahi,Shah Makhdum Airport,24.4372,88.6165
IataSPD,bd,Bangladesh,spd,Rangpur,Saidpur Upazila,Saidpur Airport,25.7592,88.9089
IataTKR,bd,Bangladesh,tkr,Rangpur,Thakurgaon District,Thakurgaon Airport,26.0164,88.4036
IataZHM,bd,Bangladesh,zhm,Sylhet,Shamshernagar,Shamshernagar Airport,24.417,91.883
IataZYL,bd,Bangladesh,zyl,Sylhet,Sylhet,Osmani International Airport,24.9632,91.8668
IataANR,be,Belgium,anr,Antwerpen,Antwerp,Antwerp International Airport,51.1894,4.46028
IataBRU,be,Belgium,bru,Brussels Hoofdstedelijk Gewest,Brussels-Capital Region,Brussels Airport (Zaventem Airport),50.9014,4.48444
IataCRL,be,Belgium,crl,Hainaut,Charleroi,Brussels South Charleroi Airport,50.4592,4.45382
IataKJK,be,Belgium,kjk,West-Vlaanderen,Kortrijk,Kortrijk-Wevelgem International Airport,50.8172,3.20472
IataLGG,be,Belgium,lgg,Liege,Liège,Liege Airport,50.6374,5.44322
IataOBL,be,Belgium,obl,Antwerpen,Zoersel,Oostmalle Airfield,51.2647,4.75333
IataOST,be,Belgium,ost,West-Vlaanderen,Ostend,Ostend-Bruges International Airport,51.1989,2.86222
IataARL,bf,Burkina Faso,arl,Tapoa,Arli National Park,Arly Airport,11.597,1.483
IataBNR,bf,Burkina Faso,bnr,Comoe,Banfora,Banfora Airport,10.683,-4.717
IataBOY,bf,Burkina Faso,boy,Houet,Bobo-Dioulasso,Bobo Dioulasso Airport,11.1601,-4.33097
IataDGU,bf,Burkina Faso,dgu,Mouhoun,Dédougou,Dedougou Airport,12.459,-3.49
IataDIP,bf,Burkina Faso,dip,Tapoa,Diapaga,Diapaga Airport,12.0603,1.78463
IataDOR,bf,Burkina Faso,dor,Seno,Dori,Dori Airport,14.033,-0.033
IataFNG,bf,Burkina Faso,fng,Gourma,Fada N’Gourma,Fada N'gourma Airport,12.033,0.35
IataOUA,bf,Burkina Faso,oua,Kadiogo,Ouagadougou,Ouagadougou Airport,12.3532,-1.51242
IataOUG,bf,Burkina Faso,oug,Yatenga,Ouahigouya,Ouahigouya Airport,13.567,-2.417
IataPUP,bf,Burkina Faso,pup,Nahouri,Pô,Po Airport,11.15,-1.15
IataTEG,bf,Burkina Faso,teg,Boulgou,Tenkodogo,Tenkodogo Airport,11.8,-0.367
IataTMQ,bf,Burkina Faso,tmq,Oudalan,Tambao,Tambao Airport,14.8,0.05
IataTUQ,bf,Burkina Faso,tuq,Sourou,Tougan,Tougan Airport,13.067,-3.067
IataXAR,bf,Burkina Faso,xar,Soum,Aribinda,Aribinda Airport,14.217,-0.883
IataXBG,bf,Burkina Faso,xbg,Gnagna,Bogande,Bogande Airport,12.983,-0.167
IataXBO,bf,Burkina Faso,xbo,Namentenga,Boulsa,Boulsa Airport,12.65,-0.567
IataXDE,bf,Burkina Faso,xde,Bougouriba,Diebougou,Diebougou Airport,10.95,-3.25
IataXDJ,bf,Burkina Faso,xdj,Soum,Djibo,Djibo Airport,14.1,-1.633
IataXGA,bf,Burkina Faso,xga,Poni,Gaoua,Gaoua Airport (Amilcar Cabral Airport),10.3841,-3.16345
IataXGG,bf,Burkina Faso,xgg,Oudalan,Gorom-Gorom,Gorom Gorom Airport,14.45,-0.233
IataXKA,bf,Burkina Faso,xka,Tapoa,Kantchari,Kantchari Airport,12.467,1.5
IataXKY,bf,Burkina Faso,xky,Sanmatenga,Kaya,Kaya Airport,13.067,-1.1
IataXLU,bf,Burkina Faso,xlu,Sissili,Leo,Leo Airport,11.1,-2.1
IataXNU,bf,Burkina Faso,xnu,Kossi,Nouna,Nouna Airport,12.75,-3.867
IataXPA,bf,Burkina Faso,xpa,Kompienga,Pama,Pama Airport,11.25,0.7
IataXSE,bf,Burkina Faso,xse,Yagha,Sebba,Sebba Airport,13.45,0.517
IataXZA,bf,Burkina Faso,xza,Boulgou,Zabré,Zabre Airport,11.167,-0.617
IataBOJ,bg,Bulgaria,boj,Burgas,Burgas,Burgas Airport,42.5696,27.5152
IataGOZ,bg,Bulgaria,goz,Veliko Tarnovo,Gorna Oryahovitsa,Gorna Oryahovitsa Airport,43.1514,25.7129
IataHKV,bg,Bulgaria,hkv,Haskovo,,Haskovo Malevo Airport,41.8718,25.6048
IataJAM,bg,Bulgaria,jam,Yambol,Bezmer,Bezmer Air Base,42.4549,26.3522
IataPDV,bg,Bulgaria,pdv,Plovdiv,Plovdiv,Plovdiv Airport,42.0678,24.8508
IataROU,bg,Bulgaria,rou,Ruse,Ruse,Ruse Airport,43.6948,26.0567
IataSLS,bg,Bulgaria,sls,Silistra,Silistra,Silistra Airfield,44.0552,27.1788
IataSOF,bg,Bulgaria,sof,Sofia,Stolichna Municipality,Sofia Airport,42.6967,23.4114
IataSZR,bg,Bulgaria,szr,Stara Zagora,Stara Zagora,Stara Zagora Airport,42.3767,25.655
IataTGV,bg,Bulgaria,tgv,Targovishte,,Targovishte Airport (Buhovtsi Airfield),43.3066,26.7009
IataVAR,bg,Bulgaria,var,Varna,Varna,Varna Airport,43.2321,27.8251
IataBAH,bh,Bahrain,bah,Al Muharraq,Bahrain,Bahrain International Airport,26.2708,50.6336
IataBJM,bi,Burundi,bjm,Bujumbura Mairie,Bujumbura,Bujumbura International Airport,-3.32402,29.3185
IataGID,bi,Burundi,gid,Gitega,Gitega,Gitega Airport,-3.41721,29.9113
IataKRE,bi,Burundi,kre,Kirundo,Kirundo,Kirundo Airport,-2.54477,30.0946
IataCOO,bj,Benin,coo,Littoral,Cotonou,Cadjehoun Airport,6.35723,2.38435
IataDJA,bj,Benin,dja,Donga,Djougou,Djougou Airport,9.69208,1.63778
IataKDC,bj,Benin,kdc,Alibori,Kandi,Kandi Airport,11.1448,2.94038
IataNAE,bj,Benin,nae,Atacora,Natitingou,Boundetingou Airport,10.377,1.36051
IataPKO,bj,Benin,pko,Borgou,Parakou,Parakou Airport,9.35769,2.60968
IataSVF,bj,Benin,svf,Collines,Savé,Save Airport,8.01817,2.46458
IataSBH,bl,Saint Barthélemy,sbh,Saint Barthelemy,Saint Barthélemy,Gustaf III Airport,17.9044,-62.8436
IataBDA,bm,Bermuda,bda,Hamilton,Hamilton,L.F. Wade International Airport,32.364,-64.6787
IataBWN,bn,Brunei,bwn,Brunei-Muara,Brunei,Brunei International Airport,4.9442,114.928
IataAPB,bo,Bolivia,apb,La Paz,Apolo,Apolo Airport,-14.7356,-68.4119
IataASC,bo,Bolivia,asc,Santa Cruz,Ascención de Guarayos,Ascencion de Guarayos Airport,-15.9303,-63.1567
IataBJO,bo,Bolivia,bjo,Tarija,Bermejo,Bermejo Airport,-22.7733,-64.3129
IataBVK,bo,Bolivia,bvk,El Beni,Huacaraje,Huacaraje Airport,-13.55,-63.7479
IataBVL,bo,Bolivia,bvl,El Beni,Baures,Baures Airport,-13.5833,-63.5833
IataBYC,bo,Bolivia,byc,Tarija,Yacuiba,Yacuiba Airport,-21.9609,-63.6517
IataCAM,bo,Bolivia,cam,Santa Cruz,Camiri,Camiri Airport,-20.0064,-63.5278
IataCBB,bo,Bolivia,cbb,Cochabamba,Cochabamba,Jorge Wilstermann International Airport,-17.4211,-66.1771
IataCCA,bo,Bolivia,cca,Cochabamba,Chimoré,Chimore Airport,-16.9889,-65.1417
IataCEP,bo,Bolivia,cep,Santa Cruz,Concepción,Concepcion Airport,-16.1383,-62.0286
IataCIJ,bo,Bolivia,cij,Pando,Cobija,Captain Anibal Arab Airport,-11.0404,-68.783
IataGYA,bo,Bolivia,gya,El Beni,Guayaramerín,Guayaramerin Airport,-10.8206,-65.3456
IataLPB,bo,Bolivia,lpb,La Paz,La Paz,El Alto International Airport,-16.5133,-68.1923
IataMGD,bo,Bolivia,mgd,El Beni,Magdalena,Magdalena Airport,-13.2607,-64.0608
IataMHW,bo,Bolivia,mhw,Chuquisaca,Monteagudo,Monteagudo Airport,-19.827,-63.961
IataMQK,bo,Bolivia,mqk,Santa Cruz,San Matías,San Matias Airport,-16.3392,-58.4019
IataORU,bo,Bolivia,oru,Oruro,Oruro,Juan Mendoza Airport,-17.9626,-67.0762
IataPOI,bo,Bolivia,poi,Potosi,Potosí,Captain Nicolas Rojas Airport,-19.5433,-65.7237
IataPSZ,bo,Bolivia,psz,Santa Cruz,Puerto Suárez,Puerto Suarez International Airport,-18.9753,-57.8206
IataPUR,bo,Bolivia,pur,Pando,Puerto Rico,Puerto Rico Airport,-11.1077,-67.5512
IataRBO,bo,Bolivia,rbo,Santa Cruz,Roboré,Robore Airport,-18.3292,-59.765
IataRBQ,bo,Bolivia,rbq,El Beni,Rurrenabaque,Rurrenabaque Airport,-14.4279,-67.4968
IataREY,bo,Bolivia,rey,El Beni,Reyes,Reyes Airport,-14.3044,-67.3534
IataRIB,bo,Bolivia,rib,El Beni,Riberalta,Riberalta Airport,-11,-66
IataSBL,bo,Bolivia,sbl,El Beni,Santa Ana del Yacuma,Santa Ana del Yacuma Airport,-13.7622,-65.4352
IataSJB,bo,Bolivia,sjb,El Beni,San Joaquín,San Joaquin Airport,-13.0528,-64.6617
IataSJS,bo,Bolivia,sjs,Santa Cruz,San José de Chiquitos,San Jose de Chiquitos Airport,-17.8308,-60.7431
IataSJV,bo,Bolivia,sjv,Santa Cruz,San Javier,San Javier Airport (Bolivia),-16.2708,-62.4703
IataSNG,bo,Bolivia,sng,Santa Cruz,San Ignacio de Velasco,Capitan Av. Juan Cochamanidis Air,-16.3836,-60.9628
IataSNM,bo,Bolivia,snm,El Beni,San Ignacio de Moxos,San Ignacio de Moxos Airport,-14.9658,-65.6338
IataSRB,bo,Bolivia,srb,El Beni,Santa Rosa de Yacuma,Santa Rosa Airport (Bolivia),-14.0662,-66.7868
IataSRD,bo,Bolivia,srd,El Beni,San Ramón,San Ramon Airport,-13.2639,-64.6039
IataSRE,bo,Bolivia,sre,Chuquisaca,Sucre,Juana Azurduy de Padilla International Airport,-19.2468,-65.1496
IataSRJ,bo,Bolivia,srj,Chuquisaca,San Borja,Capitan German Quiroga Guardia Airport,-14.8592,-66.7375
IataSRZ,bo,Bolivia,srz,Santa Cruz,Santa Cruz de la Sierra,El Trompillo Airport,-17.8116,-63.1715
IataTDD,bo,Bolivia,tdd,El Beni,Trinidad,Teniente Jorge Henrich Arauz Airport,-14.8187,-64.918
IataTJA,bo,Bolivia,tja,Tarija,Tarija,Capitan Oriel Lea Plaza Airport,-21.5557,-64.7013
IataUYU,bo,Bolivia,uyu,Potosi,Quijarro,Uyuni Airport (Joya Andina Airport),-20.4463,-66.8484
IataVAH,bo,Bolivia,vah,Santa Cruz,Vallegrande,Cap. Av. Vidal Villagomez Toledo Airport,-18.4825,-64.0994
IataVLM,bo,Bolivia,vlm,Tarija,Villamontes,Lieutenant Colonel Rafael Pabon Airport,-21.2552,-63.4056
IataVVI,bo,Bolivia,vvi,Santa Cruz,Santa Cruz,Viru Viru International Airport,-17.6448,-63.1354
IataBON,bq,Caribbean Netherlands,bon,Bonaire,Kralendijk,Flamingo International Airport,12.131,-68.2685
IataEUX,bq,Caribbean Netherlands,eux,Sint Eustatius,Oranjestad,F. D. Roosevelt Airport,17.4965,-62.9794
IataSAB,bq,Caribbean Netherlands,sab,Saba,Zion's Hill,Juancho E. Yrausquin Airport,17.645,-63.22
IataAAG,br,Brazil,aag,Parana,,Avelino Vieira Airport,-24.1039,-49.7891
IataAAI,br,Brazil,aai,Tocantins,Arraias,Arraias Airport,-13.0252,-46.8841
IataAAX,br,Brazil,aax,Minas Gerais,Araxá,Araxa Airport,-19.5632,-46.9604
IataAFL,br,Brazil,afl,Mato Grosso,Alta Floresta,Alta Floresta Airport,-9.86639,-56.105
IataAIF,br,Brazil,aif,Sao Paulo,Assis,Assis Airport,-22.64,-50.4531
IataAIR,br,Brazil,air,Mato Grosso,Aripuanã,Aripuana Airport,-10.1883,-59.4573
IataAJU,br,Brazil,aju,Sergipe,Aracaju,Santa Maria Airport (Sergipe),-10.984,-37.0703
IataALQ,br,Brazil,alq,Rio Grande do Sul,Alegrete,Alegrete Airport,-29.8127,-55.8934
IataALT,br,Brazil,alt,Para,Alenquer,Alenquer Airport,-1.917,-54.7231
IataAMJ,br,Brazil,amj,Minas Gerais,Almenara,Almenara Airport,-16.1839,-40.6672
IataAPQ,br,Brazil,apq,Alagoas,Arapiraca,Arapiraca Airport,-9.77536,-36.6292
IataAPS,br,Brazil,aps,Goias,Anápolis,Anapolis Airport,-16.3623,-48.9271
IataAPU,br,Brazil,apu,Parana,Apucarana,Apucarana Airport,-23.6095,-51.3845
IataAPX,br,Brazil,apx,Parana,Arapongas,Arapongas Airport,-23.3529,-51.4917
IataAPY,br,Brazil,apy,Maranhao,Alto Parnaíba,Alto Parnaiba Airport,-9.08361,-45.9506
IataAQA,br,Brazil,aqa,Sao Paulo,Araraquara,Araraquara Airport,-21.812,-48.133
IataAQM,br,Brazil,aqm,Rondonia,Ariquemes,Ariquemes Airport,-10.1781,-62.8256
IataARS,br,Brazil,ars,Goias,Aragarças,Aragarcas Airport,-15.8994,-52.2411
IataARU,br,Brazil,aru,Sao Paulo,Araçatuba,Aracatuba Airport,-21.1413,-50.4247
IataARX,br,Brazil,arx,Ceara,Aracati,Aracati Airport,-4.56861,-37.8047
IataATM,br,Brazil,atm,Para,Altamira,Altamira Airport,-3.25391,-52.254
IataAUX,br,Brazil,aux,Tocantins,Araguaína,Araguaina Airport,-7.22787,-48.2405
IataAXE,br,Brazil,axe,Santa Catarina,Xanxerê,Xanxerê - João Winckler Airport,-26.8756,-52.3731
IataAZL,br,Brazil,azl,Mato Grosso,Sapezal,Fazenda Tucunare Airport,-13.4655,-58.8669
IataBAT,br,Brazil,bat,Sao Paulo,Barretos,Chafei Amsei Airport,-20.5845,-48.5941
IataBAU,br,Brazil,bau,Sao Paulo,Bauru,Bauru Airport,-22.3436,-49.0539
IataBAZ,br,Brazil,baz,Amazonas,Barcelos,Barcelos Airport,-0.981292,-62.9196
IataBCR,br,Brazil,bcr,Amazonas,Boca do Acre,Novo Campo Airport,-8.83456,-67.3124
IataBDC,br,Brazil,bdc,Maranhao,Barra do Corda,Barra do Corda Airport,-5.5025,-45.2158
IataBEL,br,Brazil,bel,Para,Belém,Val de Cans International Airport,-1.37925,-48.4763
IataBFH,br,Brazil,bfh,Parana,Curitiba,Bacacheri Airport,-25.4051,-49.232
IataBGV,br,Brazil,bgv,Rio Grande do Sul,Bento Gonçalves,Bento Goncalves Airport,-29.1483,-51.5364
IataBGX,br,Brazil,bgx,Rio Grande do Sul,Bagé,Comandante Gustavo Kraemer Airport,-31.3905,-54.1122
IataBJP,br,Brazil,bjp,Sao Paulo,Bragança Paulista,Arthur Siqueira-Braganca Paulista State Airport,-22.9792,-46.5375
IataBMS,br,Brazil,bms,Bahia,Brumado,Socrates Mariani Bittencourt Airport,-14.2554,-41.8175
IataBNU,br,Brazil,bnu,Santa Catarina,Blumenau,Blumenau Airport,-26.8306,-49.0903
IataBPG,br,Brazil,bpg,Mato Grosso,Barra do Garças,Barra do Garcas Airport,-15.8613,-52.3889
IataBPS,br,Brazil,bps,Bahia,Porto Seguro,Porto Seguro Airport,-16.4386,-39.0809
IataBQQ,br,Brazil,bqq,Bahia,Barra,Barra Airport (Brazil),-11.0808,-43.1475
IataBRA,br,Brazil,bra,Bahia,Barreiras,Barreiras Airport,-12.0789,-45.009
IataBRB,br,Brazil,brb,Maranhao,Barreirinhas,Barreirinhas Airport,-2.75663,-42.8057
IataBSB,br,Brazil,bsb,Distrito Federal,Brasília,Brasilia International Airport (Presidente J. Kubitschek Int'l Airport),-15.8692,-47.9208
IataBSS,br,Brazil,bss,Maranhao,Balsas,Balsas Airport,-7.52603,-46.0533
IataBVB,br,Brazil,bvb,Roraima,Boa Vista,Boa Vista International Airport,2.84139,-60.6922
IataBVH,br,Brazil,bvh,Rondonia,Vilhena,Vilhena Airport (Brigadeiro Camarao Airport),-12.6944,-60.0983
IataBVM,br,Brazil,bvm,Bahia,Belmonte,Belmonte Airport,-15.8717,-38.8719
IataBVS,br,Brazil,bvs,Para,Breves,Breves Airport,-1.63653,-50.4436
IataBYO,br,Brazil,byo,Mato Grosso do Sul,Bonito,Bonito Airport,-21.2473,-56.4525
IataBZC,br,Brazil,bzc,Rio de Janeiro,Armação dos Búzios,Umberto Modiano Airport,-22.7709,-41.9631
IataCAC,br,Brazil,cac,Parana,Cascavel,Cascavel Airport (Adalberto Mendes da Silva Airport),-25.0003,-53.5008
IataCAF,br,Brazil,caf,Amazonas,Carauari,Carauari Airport,-4.87152,-66.8975
IataCAU,br,Brazil,cau,Pernambuco,Caruaru,Caruaru Airport (Oscar Laranjeiras Airport),-8.28239,-36.0135
IataCAW,br,Brazil,caw,Rio de Janeiro,Campos dos Goytacazes,Bartolomeu Lysandro Airport,-21.6983,-41.3017
IataCBW,br,Brazil,cbw,Parana,Campo Mourão,Campo Mourao Airport,-24.0092,-52.3568
IataCCI,br,Brazil,cci,Santa Catarina,Concórdia,Concordia Airport,-27.1806,-52.0527
IataCCM,br,Brazil,ccm,Santa Catarina,Criciúma,Diomicio Freitas Airport,-28.7244,-49.4214
IataCCX,br,Brazil,ccx,Mato Grosso,Cáceres,Caceres Airport,-16.0436,-57.6299
IataCDI,br,Brazil,cdi,Espirito Santo,Cachoeiro de Itapemirim,Cachoeiro de Itapemirim Airport (Raimundo de Andrade Airport),-20.8343,-41.1856
IataCDJ,br,Brazil,cdj,Para,Conceição do Araguaia,Conceicao do Araguaia Airport,-8.34835,-49.3015
IataCEL,br,Brazil,cel,Rio Grande do Sul,Eleuthera,Canela Airport,-29.3706,-50.8322
IataCFB,br,Brazil,cfb,Rio de Janeiro,Cabo Frio,Cabo Frio International Airport,-22.9217,-42.0743
IataCFC,br,Brazil,cfc,Santa Catarina,Caçador,Cacador Airport,-26.7884,-50.9398
IataCFO,br,Brazil,cfo,Mato Grosso,Confresa,Confresa Airport,-10.6344,-51.5636
IataCGB,br,Brazil,cgb,Mato Grosso,Cuiabá,Marechal Rondon International Airport,-15.6529,-56.1167
IataCGH,br,Brazil,cgh,São Paulo,São Paulo,,-23.5749,-46.6766
IataCGR,br,Brazil,cgr,Mato Grosso do Sul,Campo Grande,Campo Grande International Airport,-20.4687,-54.6725
IataCIZ,br,Brazil,ciz,Amazonas,Coari,Coari Airport,-4.13406,-63.1326
IataCKO,br,Brazil,cko,Parana,Cornélio Procópio,Cornelio Procopio Airport,-23.1525,-50.6025
IataCKS,br,Brazil,cks,Para,Parauapebas,Carajas Airport,-6.11528,-50.0014
IataCLN,br,Brazil,cln,Maranhao,Carolina,Carolina Airport,-7.32044,-47.4587
IataCLV,br,Brazil,clv,Goias,Caldas Novas,Caldas Novas Airport,-17.7253,-48.6075
IataCMC,br,Brazil,cmc,Ceara,Camocim,Camocim Airport,-2.89618,-40.858
IataCMG,br,Brazil,cmg,Mato Grosso do Sul,Corumbá,Corumba International Airport,-19.0119,-57.6714
IataCMP,br,Brazil,cmp,Para,Santana do Araguaia,Santana do Araguaia Airport,-9.31997,-50.3285
IataCMT,br,Brazil,cmt,Para,Cametá,Cameta Airport,-2.2468,-49.56
IataCNF,br,Brazil,cnf,Minas Gerais,Confins,Tancredo Neves International Airport,-19.6336,-43.9686
IataCNV,br,Brazil,cnv,Bahia,Canavieiras,Canavieiras Airport,-15.667,-38.9547
IataCPQ,br,Brazil,cpq,Sao Paulo,Campinas,Campo dos Amarais Airport,-22.8592,-47.1081
IataCPU,br,Brazil,cpu,Maranhao,Cururupu,Cururupu Airport,-1.82111,-44.8669
IataCPV,br,Brazil,cpv,Paraiba,Campina Grande,Campina Grande Airport (Presidente Joao Suassuna Airport),-7.26992,-35.8964
IataCQA,br,Brazil,cqa,Mato Grosso,Canarana,Canarana Airport,-13.5744,-52.2706
IataCQS,br,Brazil,cqs,Rondonia,Costa Marques,Costa Marques Airport,-12.4211,-64.2516
IataCRQ,br,Brazil,crq,Bahia,Caravelas,Caravelas Airport,-17.6523,-39.2531
IataCSS,br,Brazil,css,Mato Grosso do Sul,Cassilândia,Cassilandia Airport,-19.1464,-51.6853
IataCSU,br,Brazil,csu,Rio Grande do Sul,Santa Cruz do Sul,Santa Cruz do Sul Airport,-29.6841,-52.4122
IataCTP,br,Brazil,ctp,Maranhao,Carutapera,Carutapera Airport,-1.25028,-46.0172
IataCTQ,br,Brazil,ctq,Rio Grande do Sul,Santa Vitória do Palmar,Santa Vitoria do Palmar Airport,-33.5022,-53.3442
IataCWB,br,Brazil,cwb,Parana,São José dos Pinhais,Afonso Pena International Airport,-25.5285,-49.1758
IataCXJ,br,Brazil,cxj,Rio Grande do Sul,Caxias do Sul,Caxias do Sul Airport (Hugo Cantergiani Regional Airport),-29.1971,-51.1875
IataCZB,br,Brazil,czb,Rio Grande do Sul,Cruz Alta,Carlos Ruhl Airport,-28.6578,-53.6106
IataCZS,br,Brazil,czs,Acre,Cruzeiro do Sul,Cruzeiro do Sul International Airport,-7.59991,-72.7695
IataDIQ,br,Brazil,diq,Minas Gerais,Divinópolis,Divinopolis Airport (Brigadeiro Cabral Airport),-20.1807,-44.8709
IataDMT,br,Brazil,dmt,Mato Grosso,Diamantino,Diamantino Airport,-14.3769,-56.4004
IataDNO,br,Brazil,dno,Tocantins,Dianópolis,Dianopolis Airport,-11.5954,-46.8467
IataDOU,br,Brazil,dou,Mato Grosso do Sul,Dourados,Dourados Airport (Francisco de Matos Pereira Airport),-22.2019,-54.9266
IataDTI,br,Brazil,dti,Minas Gerais,Diamantina,Diamantina Airport,-18.232,-43.6504
IataERM,br,Brazil,erm,Rio Grande do Sul,Erechim,Erechim Airport,-27.6619,-52.2683
IataERN,br,Brazil,ern,Amazonas,Eirunepé,Eirunepe Airport (Amaury Feitosa Tomaz Airport),-6.63953,-69.8798
IataESI,br,Brazil,esi,Minas Gerais,,Espinosa Airport,-14.9337,-42.81
IataFBA,br,Brazil,fba,Amazonas,Fonte Boa,Fonte Boa Airport,-2.53261,-66.0832
IataFBE,br,Brazil,fbe,Parana,Francisco Beltrão,Francisco Beltrao Airport (Paulo Abdala Airport),-26.0592,-53.0635
IataFEC,br,Brazil,fec,Bahia,Feira de Santana,Feira de Santana Airport (Gov. Joao Durval Carneiro Airport),-12.2003,-38.9068
IataFEJ,br,Brazil,fej,Acre,Feijó,Feijo Airport,-8.14083,-70.3472
IataFEN,br,Brazil,fen,Pernambuco,Fernando de Noronha,Fernando de Noronha Airport (Gov. Carlos Wilson Airport),-3.85493,-32.4233
IataFLB,br,Brazil,flb,Piaui,Floriano,Cangapara Airport,-6.84639,-43.0773
IataFLN,br,Brazil,fln,Santa Catarina,Florianópolis,Hercilio Luz International Airport,-27.6703,-48.5525
IataFOR,br,Brazil,for,Ceara,Fortaleza,Pinto Martins - Fortaleza International Airport,-3.77628,-38.5326
IataFRC,br,Brazil,frc,Sao Paulo,Franca,Franca Airport (Ten. Lund Presotto-Franca State Airport),-20.5922,-47.3829
IataGDP,br,Brazil,gdp,Piaui,Guadalupe,Guadalupe Airport,-6.78222,-43.5822
IataGEL,br,Brazil,gel,Rio Grande do Sul,Santo Ângelo,Sepe Tiaraju Airport,-28.2817,-54.1691
IataGGB,br,Brazil,ggb,Mato Grosso,Água Boa,Agua Boa Airport,-14.0194,-52.1522
IataGGF,br,Brazil,ggf,Para,Almeirim,Almeirim Airport,-1.47917,-52.5781
IataGGH,br,Brazil,ggh,Parana,Cianorte,Gastao Mesquita Airport,-23.6914,-52.6422
IataGGJ,br,Brazil,ggj,Parana,Guaíra,Guaira Airport,-24.0797,-54.1881
IataGIG,br,Brazil,gig,Rio de Janeiro,Rio de Janeiro,Galeao-Antonio Carlos Jobim International Airport,-22.81,-43.2506
IataGJM,br,Brazil,gjm,Rondonia,Guajará-Mirim,Guajara-Mirim Airport,-10.7864,-65.2848
IataGMS,br,Brazil,gms,Maranhao,Guimarães,Guimaraes Airport,-2.10944,-44.6511
IataGNM,br,Brazil,gnm,Bahia,Guanambi,Guanambi Airport,-14.2082,-42.7461
IataGPB,br,Brazil,gpb,Parana,Guarapuava,Tancredo Thomas de Faria Airport,-25.3875,-51.5202
IataGRP,br,Brazil,grp,Tocantins,Gurupi,Gurupi Airport,-11.7396,-49.1322
IataGRU,br,Brazil,gru,Sao Paulo,São Paulo,Guarulhos International Airport,-23.4322,-46.4692
IataGUJ,br,Brazil,guj,Sao Paulo,Guaratinguetá,Guaratingueta Airport,-22.7916,-45.2048
IataGUZ,br,Brazil,guz,Espirito Santo,Guarapari,Guarapari Airport,-20.6465,-40.4919
IataGVR,br,Brazil,gvr,Minas Gerais,Governador Valadares,Coronel Altino Machado de Oliveira Airport,-18.8952,-41.9822
IataGYN,br,Brazil,gyn,Goias,Goiânia,Santa Genoveva Airport,-16.632,-49.2207
IataHRZ,br,Brazil,hrz,Rio Grande do Sul,Horizontina,Horizontina Airport,-27.6383,-54.3391
IataHUW,br,Brazil,huw,Amazonas,Humaitá,Francisco Correa da Cruz Airport,-7.53212,-63.0721
IataIDO,br,Brazil,ido,Tocantins,Cristalândia,Santa Isabel do Morro Airport,-11.5723,-50.6662
IataIGU,br,Brazil,igu,Parana,Foz do Iguaçu,Foz do Iguacu International Airport,-25.6003,-54.485
IataIJU,br,Brazil,iju,Rio Grande do Sul,Ijuí,Joao Batista Bos Filho Airport,-28.3687,-53.8466
IataIMP,br,Brazil,imp,Maranhao,municipal prefecture of Imperatriz,Imperatriz Airport (Prefeito Renato Moreira Airport),-5.53129,-47.46
IataIOS,br,Brazil,ios,Bahia,Ilhéus,Ilheus Jorge Amado Airport,-14.816,-39.0332
IataIPG,br,Brazil,ipg,Amazonas,Santo Antônio do Içá,Ipiranga Airport,-2.93907,-69.694
IataIPN,br,Brazil,ipn,Minas Gerais,Ipatinga,Vale do Aco Regional Airport,-19.4707,-42.4876
IataIPU,br,Brazil,ipu,Bahia,Ipiaú,Ipiau Airport,-14.1339,-39.7339
IataIRE,br,Brazil,ire,Bahia,Irecê,Irece Airport,-11.3399,-41.847
IataIRZ,br,Brazil,irz,Amazonas,Santa Isabel do Rio Negro,Tapuruquara Airport,-0.3786,-64.9923
IataITA,br,Brazil,ita,Amazonas,Itacoatiara,Itacoatiara Airport,-3.12726,-58.4812
IataITB,br,Brazil,itb,Para,Itaituba,Itaituba Airport,-4.24234,-56.0007
IataITE,br,Brazil,ite,Bahia,Ituberá,Itubera Airport,-13.7322,-39.1417
IataITI,br,Brazil,iti,Minas Gerais,Itambacuri,Itambacuri Airport,-8.7,-51.1742
IataITN,br,Brazil,itn,Bahia,Itabuna,Itabuna Airport,-14.8105,-39.2904
IataITP,br,Brazil,itp,Rio de Janeiro,Itaperuna,Itaperuna Airport,-21.2193,-41.8759
IataITQ,br,Brazil,itq,Rio Grande do Sul,Itaqui,Itaqui Airport,-29.1731,-56.5367
IataITR,br,Brazil,itr,Goias,Itumbiara,Itumbiara Airport,-18.4447,-49.2134
IataIZA,br,Brazil,iza,Minas Gerais,Juiz de Fora,Presidente Itamar Franco Airport (Zona da Mata Regional Airport),-21.5131,-43.1731
IataJAW,br,Brazil,jaw,Pernambuco,Araripina,,-7.5864,-40.5354
IataJBS,br,Brazil,jbs,Rio Grande do Sul,São Borja,,-28.6559,-55.9456
IataJCB,br,Brazil,jcb,Santa Catarina,Joaçaba,Santa Terezinha Municipal Airport,-27.1714,-51.5533
IataJCM,br,Brazil,jcm,Bahia,Jacobina,Jacobina Airport,-11.1632,-40.5531
IataJCR,br,Brazil,jcr,Para,Jacareacanga,Jacareacanga Airport,-6.23316,-57.7769
IataJDF,br,Brazil,jdf,Minas Gerais,Juiz de Fora,Francisco Alvares de Assis Airport,-21.7915,-43.3868
IataJDO,br,Brazil,jdo,Ceara,Juazeiro do Norte,Juazeiro do Norte Airport,-7.21896,-39.2701
IataJDR,br,Brazil,jdr,Minas Gerais,São João Del Rei,Prefeito Octavio de Almeida Neves Airport,-21.085,-44.2247
IataJEQ,br,Brazil,jeq,Bahia,Jequié,Jequie Airport,-13.8777,-40.0716
IataJIA,br,Brazil,jia,Mato Grosso,Juína,Juina Airport,-11.4194,-58.7017
IataJJD,br,Brazil,jjd,Ceara,Cruz,Comte. Ariston Pessoa Regional Airport,-2.90667,-40.3581
IataJJG,br,Brazil,jjg,Santa Catarina,Jaguaruna,Humberto Ghizzo Bortoluzzi Regional Airport,-28.6753,-49.0596
IataJLS,br,Brazil,jls,Sao Paulo,Jales,Jales Airport,-20.293,-50.5464
IataJNA,br,Brazil,jna,Minas Gerais,Januária,Januaria Airport,-15.4738,-44.3855
IataJOI,br,Brazil,joi,Santa Catarina,Joinville,Joinville-Lauro Carneiro de Loyola Airport,-26.2245,-48.7974
IataJPA,br,Brazil,jpa,Paraiba,João Pessoa,Presidente Castro Pinto International Airport,-7.14583,-34.9486
IataJPO,br,Brazil,jpo,Paraíba,Patos,,-7.0390,-37.2516
IataJPR,br,Brazil,jpr,Rondonia,Ji-Paraná,Jose Coleto Airport,-10.8708,-61.8465
IataJRN,br,Brazil,jrn,Mato Grosso,Juruena,Juruena Airport,-10.3058,-58.4894
IataJRT,br,Brazil,jrt,Maranhão,Brejo,,-3.6608,-42.8142
IataJTC,br,Brazil,jtc,Sao Paulo,Bauru,Moussa Nakhl Tobias-Bauru/Arealva State Airport,-22.1669,-49.0503
IataJTI,br,Brazil,jti,Goias,Jataí,Jatai Airport,-17.8299,-51.773
IataJUA,br,Brazil,jua,Mato Grosso,Juara,Mauro Luiz Frizon Airport,-11.2966,-57.5495
IataLAJ,br,Brazil,laj,Santa Catarina,Lages,Antonio Correia Pinto de Macedo Airport,-27.7821,-50.2815
IataLAZ,br,Brazil,laz,Bahia,Bom Jesus da Lapa,Bom Jesus da Lapa Airport,-13.2621,-43.4081
IataLBR,br,Brazil,lbr,Amazonas,Lábrea,Labrea Airport,-7.27897,-64.7695
IataLCB,br,Brazil,lcb,Mato Grosso,Pontes e Lacerda,Pontes e Lacerda Airport,-15.1934,-59.3848
IataLDB,br,Brazil,ldb,Parana,Londrina,Londrina-Governador Jose Richa Airport,-23.3336,-51.1301
IataLEC,br,Brazil,lec,Bahia,Lençóis,Coronel Horacio de Mattos Airport,-12.4823,-41.277
IataLEP,br,Brazil,lep,Minas Gerais,Leopoldina,Leopoldina Airport,-21.4661,-42.727
IataLIP,br,Brazil,lip,Sao Paulo,Lins,Lins Airport,-21.664,-49.7305
IataLOI,br,Brazil,loi,Santa Catarina,Lontras,Helmuth Baungartem Airport,-27.16,-49.5425
IataLVB,br,Brazil,lvb,Rio Grande do Sul,Santana do Livramento,Livramento do Brumado Airport,-13.6506,-41.8339
IataLVR,br,Brazil,lvr,Mato Grosso,Lucas do Rio Verde,Bom Futuro Municipal Airport,-13.0379,-55.9502
IataMAB,br,Brazil,mab,Para,Marabá,Joao Correa da Rocha Airport,-5.36859,-49.138
IataMAO,br,Brazil,mao,Amazonas,Manaus,Eduardo Gomes International Airport,-3.03861,-60.0497
IataMBK,br,Brazil,mbk,Mato Grosso,Matupá,Orlando Villas-Boas Regional Airport,-10.1703,-54.9528
IataMBZ,br,Brazil,mbz,Amazonas,Maués,Maues Airport,-3.37217,-57.7248
IataMCP,br,Brazil,mcp,Amapa,Macapá,Alberto Alcolumbre International Airport,0.050664,-51.0722
IataMCZ,br,Brazil,mcz,Alagoas,Maceió,Zumbi dos Palmares International Airport,-9.51081,-35.7917
IataMEA,br,Brazil,mea,Rio de Janeiro,Macaé,Benedito Lacerda Airport,-22.343,-41.766
IataMEU,br,Brazil,meu,Para,Almeirim,Serra do Areao Airport,-0.889839,-52.6022
IataMGF,br,Brazil,mgf,Parana,Maringá,Silvio Name Junior Regional Airport,-23.4761,-52.0162
IataMII,br,Brazil,mii,Sao Paulo,Marília,Frank Miloye Milenkowichi-Marilia State Airport,-22.1969,-49.9264
IataMNX,br,Brazil,mnx,Amazonas,Manicoré,Manicore Airport,-5.81138,-61.2783
IataMOC,br,Brazil,moc,Minas Gerais,Montes Claros,Montes Claros/Mario Ribeiro Airport,-16.7069,-43.8189
IataMQH,br,Brazil,mqh,Goias,Minaçu,Minacu Airport,-13.5491,-48.1953
IataMTE,br,Brazil,mte,Para,Monte Alegre,Monte Alegre Airport,-1.9958,-54.0742
IataMTG,br,Brazil,mtg,Mato Grosso,Vila Bela Da Santíssima Trindade,Mato Grosso Airport,-14.9942,-59.9458
IataMVF,br,Brazil,mvf,Rio Grande do Norte,Mossoró,Gov. Dix-Sept Rosado Airport,-5.20192,-37.3643
IataMVS,br,Brazil,mvs,Bahia,Mucuri,Mucuri Airport,-18.0489,-39.8642
IataNAT,br,Brazil,nat,Rio Grande do Norte,Natal,Sao Goncalo do Amarante-Governador Aluizio Alves International Airport,-5.76806,-35.3761
IataNNU,br,Brazil,nnu,Minas Gerais,Nanuque,Nanuque Airport,-17.8233,-40.3299
IataNOK,br,Brazil,nok,Mato Grosso,Nova Xavantina,Nova Xavantina Airport,-14.6983,-52.3464
IataNPR,br,Brazil,npr,Para,Novo Progresso,Novo Progresso Airport,-7.12583,-55.4008
IataNQL,br,Brazil,nql,Goias,Niquelândia,Niquelandia Air,-14.4349,-48.4915
IataNTM,br,Brazil,ntm,Tocantins,,Miracema do Tocantins Airport,-9.5669,-48.3919
IataNVP,br,Brazil,nvp,Amazonas,Novo Aripuanã,Novo Aripuana Airport,-5.11803,-60.3649
IataNVT,br,Brazil,nvt,Santa Catarina,Navegantes,Navegantes-Ministro Victor Konder International Airport,-26.88,-48.6514
IataOAL,br,Brazil,oal,Rondonia,Cacoal,Capital do Cafe Airport,-11.496,-61.4508
IataOBI,br,Brazil,obi,Para,Óbidos,Obidos Airport,-1.86717,-55.5144
IataOIA,br,Brazil,oia,Para,Ourilândia do Norte,Ourilandia do Norte Airport,-6.7631,-51.0499
IataOLC,br,Brazil,olc,Amazonas,São Paulo De Olivença,Senadora Eunice Michiles Airport,-3.46793,-68.9204
IataOPP,br,Brazil,opp,Pará,Salinópolis,,-0.6961,-47.3361
IataOPS,br,Brazil,ops,Mato Grosso,Sinop,Presidente Joao Figueiredo Airport,-11.885,-55.5861
IataORX,br,Brazil,orx,Para,Oriximiná,Oriximina Airport,-1.71408,-55.8362
IataOTT,br,Brazil,ott,Mato Grosso,Cotriguaçu,Andre Maggi Airport,-9.89861,-58.5819
IataOUS,br,Brazil,ous,Sao Paulo,Ourinhos,Jornalista Benedito Pimentel-Ourinhos State Airport,-22.9665,-49.9133
IataOYK,br,Brazil,oyk,Amapa,Oiapoque,Oiapoque Airport,3.85549,-51.7969
